stop_id,stop_code,stop_name,stop_desc,stop_lat,stop_lon,zone_id,location_type,direction,position
2,2,A Ave & Chandler,Eastbound stop in Lake Oswego (Stop ID 2),45.420595,-122.675676,3,0,East,Nearside
3,3,A Ave & Second St,Eastbound stop in Lake Oswego (Stop ID 3),45.419386,-122.665341,3,0,East,Farside
4,4,A Ave & 10th St,Westbound stop in Lake Oswego (Stop ID 4),45.420703,-122.675152,3,0,West,Nearside
6,6,A Ave & 8th St,Eastbound stop in Lake Oswego (Stop ID 6),45.420217,-122.673070,3,0,East,Nearside
7,7,A Ave & 8th St,Westbound stop in Lake Oswego (Stop ID 7),45.420411,-122.672680,3,0,West,Nearside
8,8,900 Block Abernethy,Eastbound stop in Oregon City (Stop ID 8),45.363509,-122.593886,3,0,East,At
9,9,Abernethy & Barclay,Northbound stop in Gladstone (Stop ID 9),45.384616,-122.602835,3,0,North,Nearside
10,10,Abernethy & Barclay,Southbound stop in Gladstone (Stop ID 10),45.384749,-122.603202,3,0,South,Opposite
11,11,Abernethy & Beatrice,Eastbound stop in Gladstone (Stop ID 11),45.384046,-122.601099,3,0,East,Farside
12,12,Abernethy & Center,Westbound stop in Gladstone (Stop ID 12),45.384140,-122.601137,3,0,West,Nearside
13,13,Abernethy & Duniway,Northbound stop in Gladstone (Stop ID 13),45.386032,-122.604865,3,0,North,Nearside
14,14,Abernethy & Duniway,Southbound stop in Gladstone (Stop ID 14),45.385930,-122.604915,3,0,South,Opposite
16,16,Abernethy & Portland Ave,Westbound stop in Gladstone (Stop ID 16),45.384222,-122.598181,3,0,West,Farside
17,17,Abernethy & Portland Ave,Eastbound stop in Gladstone (Stop ID 17),45.384230,-122.597420,3,0,East,Nearside
20,20,2800 Block NE 92nd,Northbound stop in Portland (Stop ID 20),45.542670,-122.569774,2,0,North,At
21,21,2800 Block NE 92nd,Southbound stop in Portland (Stop ID 21),45.543152,-122.570032,2,0,South,At
25,25,3400 Block NE 92nd,Northbound stop in Portland (Stop ID 25),45.548151,-122.568987,2,0,North,At
26,26,NE 92nd & Hill,Southbound stop in Portland (Stop ID 26),45.545655,-122.570035,2,0,South,Nearside
27,27,N Adair & 7th,Westbound stop in Cornelius (Stop ID 27),45.520986,-123.063196,3,0,West,Farside
28,28,2200 Block Baseline,Westbound stop in Cornelius (Stop ID 28),45.520248,-123.044431,3,0,West,At
30,30,N Adair & 10th,Westbound stop in Cornelius (Stop ID 30),45.520983,-123.059301,3,0,West,Nearside
31,31,N Adair & 12th,Westbound stop in Cornelius (Stop ID 31),45.520968,-123.056817,3,0,West,Nearside
32,32,N Adair & 14th,Westbound stop in Cornelius (Stop ID 32),45.520985,-123.054208,3,0,West,Nearside
33,33,N Adair & 17th,Westbound stop in Cornelius (Stop ID 33),45.520981,-123.051781,3,0,West,Farside
34,34,N Adair & 20th,Westbound stop in Cornelius (Stop ID 34),45.520445,-123.047684,3,0,West,Farside
35,35,N Adair & 4th,Westbound stop in Cornelius (Stop ID 35),45.521015,-123.067215,3,0,West,Farside
40,40,N Trenton & Dana,Eastbound stop in Portland (Stop ID 40),45.588572,-122.711693,2,0,East,Farside
41,41,N Alaska & Chautauqua,Eastbound stop in Portland (Stop ID 41),45.587770,-122.705599,2,0,East,Nearside
42,42,N Alaska & Chautauqua Pl,Eastbound stop in Portland (Stop ID 42),45.587778,-122.707858,2,0,East,Opposite
43,43,N Alaska & Chautauqua Pl,Westbound stop in Portland (Stop ID 43),45.587859,-122.707761,2,0,West,Nearside
44,44,N Alaska & Foss,Eastbound stop in Portland (Stop ID 44),45.587770,-122.710250,2,0,East,Opposite
45,45,N Alaska & University Park,Westbound stop in Portland (Stop ID 45),45.587861,-122.709954,2,0,West,Opposite
46,46,NE Alberta & M L King,Eastbound stop in Portland (Stop ID 46),45.559079,-122.661080,2,0,East,Farside
48,48,NE Alberta & 11th,Eastbound stop in Portland (Stop ID 48),45.559052,-122.654698,2,0,East,Nearside
49,49,NE Alberta & 11th,Westbound stop in Portland (Stop ID 49),45.559165,-122.654485,2,0,West,Nearside
50,50,NE Alberta & 13th,Eastbound stop in Portland (Stop ID 50),45.559046,-122.652745,2,0,East,Nearside
51,51,NE Alberta & 13th,Westbound stop in Portland (Stop ID 51),45.559153,-122.652531,2,0,West,Nearside
52,52,NE Alberta & 15th,Eastbound stop in Portland (Stop ID 52),45.559032,-122.649877,2,0,East,Nearside
53,53,NE Alberta & 15th,Westbound stop in Portland (Stop ID 53),45.559143,-122.649596,2,0,West,Nearside
54,54,NE Alberta & 18th,Eastbound stop in Portland (Stop ID 54),45.559021,-122.646867,2,0,East,Nearside
55,55,NE Alberta & 18th,Westbound stop in Portland (Stop ID 55),45.559142,-122.646676,2,0,West,Nearside
60,60,NE Alberta & 24th,Eastbound stop in Portland (Stop ID 60),45.559009,-122.641042,2,0,East,Nearside
61,61,NE Alberta & 24th,Westbound stop in Portland (Stop ID 61),45.559117,-122.640805,2,0,West,Nearside
63,63,NE Alberta & 27th,Eastbound stop in Portland (Stop ID 63),45.559000,-122.637997,2,0,East,Nearside
64,64,NE Alberta & 27th,Westbound stop in Portland (Stop ID 64),45.559091,-122.637779,2,0,West,Nearside
67,67,SE Alberta & 70th,Eastbound stop in Clackamas Co. (Stop ID 67),45.458536,-122.592013,2,0,East,Opposite
68,68,SE Alberta & 70th,Westbound stop in Clackamas Co. (Stop ID 68),45.458638,-122.591814,2,0,West,Nearside
69,69,NE Alberta & 9th,Eastbound stop in Portland (Stop ID 69),45.559061,-122.656697,2,0,East,Nearside
70,70,NE Alberta & 9th,Westbound stop in Portland (Stop ID 70),45.559174,-122.656436,2,0,West,Nearside
71,71,N Albina & Ainsworth,Northbound stop in Portland (Stop ID 71),45.566631,-122.674812,2,0,North,Farside
72,72,N Albina & Ainsworth,Southbound stop in Portland (Stop ID 72),45.566519,-122.675031,2,0,South,Nearside
73,73,N Albina & Alberta,Northbound stop in Portland (Stop ID 73),45.558926,-122.674894,2,0,North,Nearside
74,74,N Albina & Alberta,Southbound stop in Portland (Stop ID 74),45.558715,-122.675067,2,0,South,Farside
76,76,N Albina & Blandena,Northbound stop in Portland (Stop ID 76),45.557139,-122.674858,2,0,North,Farside
77,77,N Albina & Blandena,Southbound stop in Portland (Stop ID 77),45.556627,-122.675025,2,0,South,Farside
78,78,N Albina & Bryant,Northbound stop in Portland (Stop ID 78),45.573296,-122.674750,2,0,North,Nearside
79,79,N Albina & Bryant,Southbound stop in Portland (Stop ID 79),45.573495,-122.674940,2,0,South,Nearside
80,80,N Albina & Buffalo,Northbound stop in Portland (Stop ID 80),45.575057,-122.674734,2,0,North,Nearside
81,81,N Albina & Buffalo,Southbound stop in Portland (Stop ID 81),45.575184,-122.674920,2,0,South,Nearside
82,82,N Albina & Dekum,Northbound stop in Portland (Stop ID 82),45.571675,-122.674778,2,0,North,Nearside
83,83,N Albina & Dekum,Southbound stop in Portland (Stop ID 83),45.571831,-122.674942,2,0,South,Nearside
84,84,N Albina & Holman,Northbound stop in Portland (Stop ID 84),45.568701,-122.674789,2,0,North,Opposite
86,86,N Albina & Jessup,Northbound stop in Portland (Stop ID 86),45.564016,-122.674893,2,0,North,Nearside
87,87,N Albina & Jessup,Southbound stop in Portland (Stop ID 87),45.563826,-122.674994,2,0,South,Farside
88,88,N Albina & Killingsworth,Northbound stop in Portland (Stop ID 88),45.562966,-122.674864,2,0,North,Farside
89,89,N Albina & Killingsworth,Southbound stop in Portland (Stop ID 89),45.562390,-122.675055,2,0,South,Farside
90,90,N Albina & Lombard,Southbound stop in Portland (Stop ID 90),45.576854,-122.674898,2,0,South,Farside
91,91,N Albina & Rosa Parks Way,Northbound stop in Portland (Stop ID 91),45.570361,-122.674801,2,0,North,Farside
92,92,N Albina & Rosa Parks Way,Southbound stop in Portland (Stop ID 92),45.569627,-122.674960,2,0,South,Farside
93,93,N Albina & Lombard,Northbound stop in Portland (Stop ID 93),45.576896,-122.674698,2,0,North,Nearside
94,94,N Albina & Sumner,Northbound stop in Portland (Stop ID 94),45.560370,-122.674925,2,0,North,Nearside
95,95,N Albina & Sumner,Southbound stop in Portland (Stop ID 95),45.560619,-122.675065,2,0,South,Nearside
99,99,SW Allen & Dale,Eastbound stop in Beaverton (Stop ID 99),45.476400,-122.809456,3,0,East,Nearside
100,100,SW Allen & Erickson,Eastbound stop in Beaverton (Stop ID 100),45.476401,-122.812120,3,0,East,Nearside
101,101,SW Allen & Erickson,Westbound stop in Beaverton (Stop ID 101),45.476537,-122.812320,3,0,West,Farside
102,102,SW Allen & Hall,Eastbound stop in Beaverton (Stop ID 102),45.476360,-122.805655,3,0,East,Nearside
103,103,SW Allen & Hall,Westbound stop in Beaverton (Stop ID 103),45.476549,-122.805243,3,0,West,Nearside
104,104,SW Allen & Menlo,Eastbound stop in Beaverton (Stop ID 104),45.476397,-122.817330,3,0,East,Nearside
105,105,SW Allen & Menlo,Westbound stop in Beaverton (Stop ID 105),45.476555,-122.816988,3,0,West,Nearside
106,106,SW Allen & Murray,Eastbound stop in Beaverton (Stop ID 106),45.476405,-122.824753,3,0,East,Farside
108,108,SW Allen & Taralynn,Westbound stop in Beaverton (Stop ID 108),45.476526,-122.809236,3,0,West,Farside
111,111,SW Allen & Wilson,Eastbound stop in Beaverton (Stop ID 111),45.476402,-122.819245,3,0,East,Nearside
112,112,SW Allen & Wilson,Westbound stop in Beaverton (Stop ID 112),45.476545,-122.819677,3,0,West,Opposite
113,113,SW Allen & 141st,Eastbound stop in Beaverton (Stop ID 113),45.476376,-122.821590,3,0,East,Opposite
114,114,SW Allen & 141st,Westbound stop in Beaverton (Stop ID 114),45.476557,-122.821376,3,0,West,Nearside
115,115,N Anchor & Channel,Eastbound stop in Portland (Stop ID 115),45.556741,-122.703896,2,0,East,Nearside
118,118,NE 21st & Argyle,Southbound stop in Portland (Stop ID 118),45.579391,-122.644007,2,0,South,Farside
121,121,W Arlington & Barton,Eastbound stop in Gladstone (Stop ID 121),45.376432,-122.598823,3,0,East,Nearside
122,122,W Arlington & Barton,Westbound stop in Gladstone (Stop ID 122),45.376600,-122.598664,3,0,West,Nearside
123,123,W Arlington & Beatrice,Eastbound stop in Gladstone (Stop ID 123),45.377061,-122.596965,3,0,East,Nearside
124,124,W Arlington & Beatrice,Westbound stop in Gladstone (Stop ID 124),45.377229,-122.596765,3,0,West,Nearside
125,125,W Arlington & Bellevue,Eastbound stop in Gladstone (Stop ID 125),45.377700,-122.595057,3,0,East,Nearside
126,126,W Arlington & Bellevue,Westbound stop in Gladstone (Stop ID 126),45.377864,-122.594889,3,0,West,Nearside
131,131,E Arlington & Cornell,Eastbound stop in Gladstone (Stop ID 131),45.380385,-122.586848,3,0,East,Nearside
132,132,E Arlington & Cornell,Westbound stop in Gladstone (Stop ID 132),45.380570,-122.586677,3,0,West,Nearside
133,133,E Arlington & Harvard,Eastbound stop in Gladstone (Stop ID 133),45.379322,-122.590089,3,0,East,Nearside
134,134,E Arlington & Harvard,Westbound stop in Gladstone (Stop ID 134),45.379553,-122.589754,3,0,West,Nearside
135,135,W Arlington & McLoughlin,Westbound stop in Gladstone (Stop ID 135),45.375960,-122.600892,3,0,West,Nearside
136,136,W Arlington & Portland Ave,Eastbound stop in Gladstone (Stop ID 136),45.378217,-122.593418,3,0,East,Nearside
137,137,E Arlington & Portland Ave,Westbound stop in Gladstone (Stop ID 137),45.378434,-122.593186,3,0,West,Nearside
140,140,E Arlington & 82nd Dr,Eastbound stop in Gladstone (Stop ID 140),45.381391,-122.583812,3,0,East,Nearside
141,141,82nd Dr & E Berkeley,Southbound stop in Gladstone (Stop ID 141),45.382088,-122.583411,3,0,South,Farside
142,142,SW Arthur & 1st,Eastbound stop in Portland (Stop ID 142),45.503626,-122.678997,1,0,East,Nearside
143,143,SW Arthur & 1st,Westbound stop in Portland (Stop ID 143),45.503817,-122.678421,1,0,West,Nearside
146,146,19th & B St,Eastbound stop in Forest Grove (Stop ID 146),45.518534,-123.115448,3,0,East,Farside
147,147,B Ave & Second St,Westbound stop in Lake Oswego (Stop ID 147),45.420841,-122.665113,3,0,West,Nearside
150,150,10100 Block SW Barbur,Eastbound stop in Portland (Stop ID 150),45.452563,-122.723393,2,0,East,At
152,152,10700 Block SW Barbur,Southbound stop in Portland (Stop ID 152),45.447685,-122.729368,2,0,South,At
153,153,11100 Block SW Barbur,Westbound stop in Portland (Stop ID 153),45.445113,-122.733645,2,0,West,At
154,154,11100 Block SW Barbur,Eastbound stop in Portland (Stop ID 154),45.444878,-122.733466,2,0,East,Opposite
155,155,4900 Block SW Barbur,Southbound stop in Portland (Stop ID 155),45.487009,-122.682775,1,0,South,Opposite
156,156,4900 Block SW Barbur,Northbound stop in Portland (Stop ID 156),45.487676,-122.682547,1,0,North,At
159,159,SW Barbur & 26th Ave,Eastbound stop in Portland (Stop ID 159),45.462586,-122.702772,2,0,East,Opposite
160,160,9500 Block SW Barbur,Eastbound stop in Portland (Stop ID 160),45.456573,-122.713416,2,0,East,At
162,162,SW Barbur & Alice,Eastbound stop in Portland (Stop ID 162),45.458724,-122.709491,2,0,East,Farside
163,163,SW Barbur & Alice,Westbound stop in Portland (Stop ID 163),45.458441,-122.710464,2,0,West,Nearside
164,164,SW Barbur & Taylors Ferry,Westbound stop in Portland (Stop ID 164),45.456755,-122.713532,2,0,West,Nearside
165,165,SW Barbur & Barbur Ct,Westbound stop in Portland (Stop ID 165),45.462361,-122.703642,2,0,West,Opposite
167,167,SW Barbur & Brier,Northbound stop in Portland (Stop ID 167),45.472706,-122.679339,2,0,North,Nearside
168,168,SW Barbur & Capitol Hwy,Eastbound stop in Portland (Stop ID 168),45.453229,-122.721559,2,0,East,Nearside
170,170,SW Barbur & Capitol Hill,Westbound stop in Portland (Stop ID 170),45.465665,-122.697961,2,0,West,Farside
172,172,SW Barbur & Hamilton,Eastbound stop in Portland (Stop ID 172),45.491207,-122.677745,1,0,East,Farside
173,173,SW Barbur & Hamilton,Westbound stop in Portland (Stop ID 173),45.491004,-122.678565,1,0,West,Nearside
174,174,SW Barbur & Hooker St,Northbound stop in Portland (Stop ID 174),45.502083,-122.681478,1,0,North,Nearside
175,175,SW Barbur & Hooker St,Southbound stop in Portland (Stop ID 175),45.502683,-122.682115,1,0,South,Nearside
176,176,SW Barbur & Lane,Southbound stop in Portland (Stop ID 176),45.495953,-122.678329,1,0,South,Nearside
177,177,SW Barbur & Lane,Northbound stop in Portland (Stop ID 177),45.495933,-122.678004,1,0,North,Opposite
178,178,SW Barbur & Luradel,Westbound stop in Portland (Stop ID 178),45.451043,-122.727276,2,0,West,Opposite
179,179,SW Barbur & Luradel,Eastbound stop in Portland (Stop ID 179),45.450855,-122.727122,2,0,East,Farside
180,180,SW Barbur & Moss,Northbound stop in Portland (Stop ID 180),45.467494,-122.694279,2,0,North,Nearside
181,181,SW Barbur & Parkhill Dr,Southbound stop in Portland (Stop ID 181),45.476747,-122.679797,2,0,South,Farside
182,182,SW Barbur & Nebraska,Northbound stop in Portland (Stop ID 182),45.477396,-122.679648,2,0,North,Opposite
183,183,11200 Block SW Barbur,Eastbound stop in Portland (Stop ID 183),45.444189,-122.736603,2,0,East,At
184,184,11200 Block SW Barbur,Westbound stop in Portland (Stop ID 184),45.444426,-122.736395,2,0,West,Opposite
185,185,SW Barbur & Pennoyer,Southbound stop in Portland (Stop ID 185),45.497260,-122.679075,1,0,South,Opposite
186,186,SW Barbur & Pennoyer,Northbound stop in Portland (Stop ID 186),45.497737,-122.679055,1,0,North,Farside
187,187,SW Barbur & Primrose,Westbound stop in Portland (Stop ID 187),45.459618,-122.708448,2,0,West,Nearside
188,188,SW Barbur & Capitol Hwy,Southbound stop in Portland (Stop ID 188),45.480174,-122.680257,2,0,South,Farside
189,189,SW Barbur & Slavin/Capitol Hwy,Northbound stop in Portland (Stop ID 189),45.480528,-122.680132,2,0,North,Opposite
191,191,SW Barbur & Terwilliger,Westbound stop in Portland (Stop ID 191),45.471211,-122.686132,2,0,West,Farside
193,193,SW Barbur & Terwilliger,Eastbound stop in Portland (Stop ID 193),45.470945,-122.684911,2,0,East,Farside
194,194,8900 Block SW Barbur,Westbound stop in Portland (Stop ID 194),45.460850,-122.706299,2,0,West,At
195,195,SW Barbur & Whitaker,Northbound stop in Portland (Stop ID 195),45.499066,-122.679787,1,0,North,Farside
196,196,SW Barbur & Whitaker,Southbound stop in Portland (Stop ID 196),45.498700,-122.679885,1,0,South,Opposite
197,197,SW Barbur & Woods,Northbound stop in Portland (Stop ID 197),45.500753,-122.680756,1,0,North,Nearside
198,198,SW Barbur & Woods,Southbound stop in Portland (Stop ID 198),45.501004,-122.681019,1,0,South,Opposite
199,199,SW Barbur & Bertha,Westbound stop in Portland (Stop ID 199),45.470453,-122.689589,2,0,West,Farside
200,200,SW Barbur & 13th,Westbound stop in Portland (Stop ID 200),45.468854,-122.692381,2,0,West,Farside
201,201,SW Barbur & Evans,Westbound stop in Portland (Stop ID 201),45.467083,-122.695484,2,0,West,Nearside
202,202,SW Barbur & 19th,Eastbound stop in Portland (Stop ID 202),45.465548,-122.697573,2,0,East,Nearside
203,203,SW Barbur & 2nd,Northbound stop in Portland (Stop ID 203),45.471449,-122.680575,2,0,North,Nearside
207,207,SW Barbur & 3rd,Westbound stop in Portland (Stop ID 207),45.471567,-122.680911,2,0,West,Nearside
208,208,SW Barbur & 30th,Eastbound stop in Portland (Stop ID 208),45.459873,-122.707448,2,0,East,Farside
209,209,SW Barbur & 53rd,Westbound stop in Portland (Stop ID 209),45.446006,-122.730909,2,0,West,Nearside
210,210,SW Barbur & 53rd,Eastbound stop in Portland (Stop ID 210),45.446263,-122.730173,2,0,East,Farside
211,211,SW Pacific Hwy & 64th,Eastbound stop in Portland (Stop ID 211),45.442980,-122.742702,2,0,East,Nearside
212,212,Barbur Transit Center,Eastbound stop in Portland (Stop ID 212),45.454532,-122.717375,2,0,East,At
227,227,12200 Block NW Barnes,Southbound stop in Beaverton (Stop ID 227),45.521371,-122.804301,3,0,South,At
228,228,NW Barnes & Saltzman,Northbound stop in Beaverton (Stop ID 228),45.522880,-122.805535,3,0,North,At
229,229,7600 Block SW Barnes,Eastbound stop in Washington Co. (Stop ID 229),45.512534,-122.756523,2,0,East,Farside
230,230,8200 Block SW Barnes (Art School),Eastbound stop in Washington Co. (Stop ID 230),45.509866,-122.761710,2,0,East,Opposite
231,231,8200 Block SW Barnes (Art School),Westbound stop in Washington Co. (Stop ID 231),45.510385,-122.761255,2,0,West,At
233,233,9300 Block SW Barnes,Eastbound stop in Washington Co. (Stop ID 233),45.509082,-122.773609,3,0,East,At
234,234,12400 Block NW Barnes,Northbound stop in Beaverton (Stop ID 234),45.522025,-122.804718,3,0,North,Opposite
235,235,8800 Block SW Barnes (Gabel School),Westbound stop in Washington Co. (Stop ID 235),45.508716,-122.767925,3,0,West,Nearside
236,236,SW Barnes & Leahy,Eastbound stop in Washington Co. (Stop ID 236),45.511132,-122.760108,2,0,East,Nearside
237,237,SW Barnes & Leahy,Westbound stop in Washington Co. (Stop ID 237),45.511420,-122.759947,2,0,West,Nearside
238,238,SW Barnes & Miller,Eastbound stop in Washington Co. (Stop ID 238),45.515763,-122.752319,2,0,East,Farside
239,239,SW Barnes & Miller,Westbound stop in Washington Co. (Stop ID 239),45.515366,-122.753601,2,0,West,Farside
240,240,SW Barnes & Monterey/St Vincent Hosp Dr,Westbound stop in Washington Co. (Stop ID 240),45.508877,-122.770308,3,0,West,Nearside
241,241,SW Barnes & Monterey,Eastbound stop in Washington Co. (Stop ID 241),45.508719,-122.770800,3,0,East,Nearside
247,247,SW Barnes & W Stark,Eastbound stop in Beaverton (Stop ID 247),45.519174,-122.800136,3,0,East,Farside
251,251,SW Barnes & 70th,Eastbound stop in Washington Co. (Stop ID 251),45.516112,-122.748978,2,0,East,Opposite
252,252,SW Barnes & 70th,Westbound stop in Washington Co. (Stop ID 252),45.516358,-122.749396,2,0,West,Farside
253,253,SW Barnes & 84th,Westbound stop in Washington Co. (Stop ID 253),45.509035,-122.764157,3,0,West,Farside
255,255,SW Barnes & 88th,Eastbound stop in Washington Co. (Stop ID 255),45.508500,-122.767549,3,0,East,Nearside
256,256,E Baseline & Valley View,Eastbound stop in Cornelius (Stop ID 256),45.519875,-123.029606,3,0,East,Opposite
257,257,SE Tualatin Valley Hwy & 44th,Westbound stop in Hillsboro (Stop ID 257),45.501354,-122.938481,3,0,West,Nearside
258,258,700 Block Baseline,Eastbound stop in Cornelius (Stop ID 258),45.520027,-123.063331,3,0,East,At
259,259,SW Baseline & Adams,Westbound stop in Hillsboro (Stop ID 259),45.520199,-122.991171,3,0,West,Nearside
260,260,E Main & NE Brookwood,Westbound stop in Hillsboro (Stop ID 260),45.520042,-122.937237,3,0,West,Farside
261,261,E Main & SW Brookwood,Eastbound stop in Hillsboro (Stop ID 261),45.519820,-122.936937,3,0,East,Nearside
263,263,Baseline St & S 26th,Eastbound stop in Cornelius (Stop ID 263),45.519849,-123.040524,3,0,East,Nearside
264,264,SW Baseline St & 17th,Westbound stop in Hillsboro (Stop ID 264),45.520042,-123.007394,3,0,West,Opposite
265,265,W Baseline Rd & SW Lisa,Westbound stop in Washington Co. (Stop ID 265),45.516383,-122.871246,3,0,West,Farside
267,267,2200 Block Baseline St,Eastbound stop in Cornelius (Stop ID 267),45.520027,-123.044408,3,0,East,At
268,268,1000 Block SW Baseline St,Westbound stop in Hillsboro (Stop ID 268),45.520028,-123.000575,3,0,West,At
269,269,W Baseline Rd & SW Willow Creek Dr,Eastbound stop in Washington Co. (Stop ID 269),45.516157,-122.871055,3,0,East,Nearside
270,270,Baseline St & S 1st,Eastbound stop in Cornelius (Stop ID 270),45.520033,-123.070709,3,0,East,Nearside
271,271,Baseline St & S 10th,Eastbound stop in Cornelius (Stop ID 271),45.520016,-123.059748,3,0,East,Nearside
272,272,Baseline St & N 12th,Eastbound stop in Cornelius (Stop ID 272),45.520015,-123.056497,3,0,East,Farside
273,273,Baseline St & S 14th,Eastbound stop in Cornelius (Stop ID 273),45.519984,-123.054109,3,0,East,Farside
275,275,W Baseline Rd & SW 185th,Westbound stop in Hillsboro (Stop ID 275),45.516017,-122.868402,3,0,West,Farside
277,277,Baseline & S 20th,Eastbound stop in Cornelius (Stop ID 277),45.520061,-123.047219,3,0,East,Nearside
278,278,W Baseline Rd & SW 194th,Eastbound stop in Washington Co. (Stop ID 278),45.515931,-122.876410,3,0,East,Nearside
279,279,W Baseline Rd & SW 195th,Westbound stop in Washington Co. (Stop ID 279),45.516076,-122.876760,3,0,West,Nearside
280,280,SE Baseline St & 2nd,Westbound stop in Hillsboro (Stop ID 280),45.520168,-122.987847,3,0,West,Nearside
284,284,Baseline St & N 26th,Westbound stop in Cornelius (Stop ID 284),45.520137,-123.040783,3,0,West,Farside
285,285,Baseline St & N 29th,Eastbound stop in Cornelius (Stop ID 285),45.519885,-123.035414,3,0,East,Opposite
286,286,Baseline St & N 29th,Westbound stop in Cornelius (Stop ID 286),45.520130,-123.036823,3,0,West,Farside
287,287,Baseline St & N 31st,Westbound stop in Cornelius (Stop ID 287),45.520084,-123.033982,3,0,West,Farside
288,288,E Main & NE 32nd,Westbound stop in Hillsboro (Stop ID 288),45.520017,-122.949544,3,0,West,Nearside
290,290,SW Baseline & 331st,Westbound stop in Washington Co. (Stop ID 290),45.520100,-123.017068,3,0,West,Opposite
291,291,SW Baseline & 331st,Eastbound stop in Washington Co. (Stop ID 291),45.519862,-123.017376,3,0,East,Farside
292,292,SW Baseline & NW 334th,Westbound stop in Washington Co. (Stop ID 292),45.520066,-123.021239,3,0,West,Farside
293,293,SW Baseline & NW 334th,Eastbound stop in Washington Co. (Stop ID 293),45.519827,-123.020731,3,0,East,Opposite
297,297,SW Baseline & NW 338th,Eastbound stop in Cornelius (Stop ID 297),45.519792,-123.024296,3,0,East,Opposite
298,298,Baseline St & Valley View,Westbound stop in Cornelius (Stop ID 298),45.520079,-123.030304,3,0,West,At
300,300,SW Baseline & 345th,Eastbound stop in Cornelius (Stop ID 300),45.519862,-123.032736,3,0,East,Nearside
301,301,E Main & NE 37th,Westbound stop in Hillsboro (Stop ID 301),45.520013,-122.944319,3,0,West,Nearside
302,302,E Main & SE 37th,Eastbound stop in Hillsboro (Stop ID 302),45.519870,-122.944727,3,0,East,Nearside
303,303,Baseline St & S 4th,Eastbound stop in Cornelius (Stop ID 303),45.520045,-123.067046,3,0,East,Nearside
304,304,SE Baseline St & 3rd,Westbound stop in Hillsboro (Stop ID 304),45.520142,-122.986034,3,0,West,Nearside
305,305,E Main & NE 40th,Westbound stop in Hillsboro (Stop ID 305),45.520007,-122.940595,3,0,West,Nearside
306,306,E Main & NE 40th,Eastbound stop in Hillsboro (Stop ID 306),45.519857,-122.940659,3,0,East,Opposite
307,307,SE Baseline St & 5th,Westbound stop in Hillsboro (Stop ID 307),45.520114,-122.982407,3,0,West,Nearside
308,308,SE Baseline St & 7th,Westbound stop in Hillsboro (Stop ID 308),45.520073,-122.978859,3,0,West,Nearside
310,310,SE Baseline St & 9th,Westbound stop in Hillsboro (Stop ID 310),45.520061,-122.975390,3,0,West,Nearside
312,312,5500 Block N Basin,Northbound stop in Portland (Stop ID 312),45.562998,-122.705390,2,0,North,At
313,313,6200 Block N Basin,Eastbound stop in Portland (Stop ID 313),45.568249,-122.710781,2,0,East,At
314,314,6300 Block N Basin,Northbound stop in Portland (Stop ID 314),45.568514,-122.710963,2,0,North,At
315,315,6700 Block N Basin (UPS),Southbound stop in Portland (Stop ID 315),45.571161,-122.717290,2,0,South,At
316,316,6700 Block N Basin (Coast Guard),Eastbound stop in Portland (Stop ID 316),45.572453,-122.719805,2,0,East,At
317,317,N Basin & Emerson,Southbound stop in Portland (Stop ID 317),45.561861,-122.704051,2,0,South,Opposite
318,318,N Basin & Emerson,Northbound stop in Portland (Stop ID 318),45.561736,-122.703418,2,0,North,Nearside
319,319,N Basin & Ensign,Southbound stop in Portland (Stop ID 319),45.569603,-122.714408,2,0,South,Nearside
320,320,N Basin & Ensign,Northbound stop in Portland (Stop ID 320),45.569464,-122.713785,2,0,North,Nearside
321,321,N Basin & Fathom,Northbound stop in Portland (Stop ID 321),45.571487,-122.717561,2,0,North,Nearside
322,322,N Basin & Leverman,Southbound stop in Portland (Stop ID 322),45.565842,-122.708748,2,0,South,Opposite
323,323,N Basin & Leverman,Northbound stop in Portland (Stop ID 323),45.566357,-122.709251,2,0,North,Farside
324,324,N Basin & Pacific Pride,Northbound stop in Portland (Stop ID 324),45.560333,-122.701723,2,0,North,At
325,325,2600 Block SW Beaverton-Hillsdale,Eastbound stop in Portland (Stop ID 325),45.480217,-122.704126,2,0,East,At
326,326,3600 Block SW Beaverton-Hillsdale,Eastbound stop in Portland (Stop ID 326),45.483593,-122.714813,2,0,East,At
327,327,3600 Block SW Beaverton-Hillsdale,Westbound stop in Portland (Stop ID 327),45.483851,-122.714821,2,0,West,Opposite
328,328,SW Beaverton-Hillsdale & 59th,Eastbound stop in Portland (Stop ID 328),45.486948,-122.737820,2,0,East,Opposite
329,329,6100 Block SW Beaverton-Hillsdale,Westbound stop in Portland (Stop ID 329),45.487167,-122.740354,2,0,West,At
330,330,6700 Block SW Beaverton-Hillsdale,Westbound stop in Washington Co. (Stop ID 330),45.486994,-122.745900,2,0,West,At
331,331,7300 Block SW Beaverton-Hillsdale,Eastbound stop in Washington Co. (Stop ID 331),45.485993,-122.752023,2,0,East,Opposite
332,332,7400 Block SW Beaverton-Hillsdale,Westbound stop in Washington Co. (Stop ID 332),45.486163,-122.753440,2,0,West,At
333,333,7700 Block SW Beaverton-Hillsdale,Eastbound stop in Washington Co. (Stop ID 333),45.486028,-122.754911,2,0,East,At
335,335,SW Beaverton-Hillsdale & Apple Way,Eastbound stop in Beaverton (Stop ID 335),45.486149,-122.764288,2,0,East,Nearside
336,336,SW Beaverton-Hillsdale & Bertha,Eastbound stop in Portland (Stop ID 336),45.479156,-122.700834,2,0,East,Nearside
340,340,SW Beaverton-Hillsdale & Dosch,Westbound stop in Portland (Stop ID 340),45.481625,-122.707507,2,0,West,Nearside
341,341,SW Beaverton-Hillsdale & Griffith,Westbound stop in Beaverton (Stop ID 341),45.486616,-122.796751,3,0,West,Farside
342,342,SW Beaverton-Hillsdale & Griffith,Eastbound stop in Beaverton (Stop ID 342),45.486417,-122.797055,3,0,East,Nearside
343,343,SW Beaverton-Hillsdale & Jamieson,Westbound stop in Beaverton (Stop ID 343),45.486566,-122.774371,3,0,West,Opposite
344,344,SW Beaverton-Hillsdale & Jamieson,Eastbound stop in Beaverton (Stop ID 344),45.486384,-122.774201,3,0,East,Farside
345,345,SW Beaverton-Hillsdale & White Pine Ln,Eastbound stop in Beaverton (Stop ID 345),45.486239,-122.767752,2,0,East,Farside
346,346,SW Beaverton-Hillsdale & Laurelwood,Westbound stop in Beaverton (Stop ID 346),45.486305,-122.760716,2,0,West,Nearside
347,347,SW Beaverton-Hillsdale & Laurelwood,Eastbound stop in Beaverton (Stop ID 347),45.486134,-122.761143,2,0,East,Nearside
348,348,SW Beaverton-Hillsdale & Oleson,Eastbound stop in Washington Co. (Stop ID 348),45.486129,-122.748414,2,0,East,Nearside
349,349,SW Beaverton-Hillsdale & Poplar Ln,Westbound stop in Beaverton (Stop ID 349),45.486369,-122.763875,2,0,West,Nearside
350,350,SW Beaverton-Hillsdale & Oleson,Westbound stop in Washington Co. (Stop ID 350),45.486464,-122.747940,2,0,West,Nearside
351,351,SW Beaverton-Hillsdale & Shattuck,Eastbound stop in Portland (Stop ID 351),45.486926,-122.732185,2,0,East,Nearside
352,352,SW Beaverton-Hillsdale & Shattuck,Westbound stop in Portland (Stop ID 352),45.487180,-122.731977,2,0,West,Farside
354,354,SW Beaverton-Hillsdale & Western,Eastbound stop in Beaverton (Stop ID 354),45.486414,-122.783807,3,0,East,Nearside
355,355,SW Beaverton-Hillsdale & Western,Westbound stop in Beaverton (Stop ID 355),45.486626,-122.782529,3,0,West,Opposite
356,356,SW Beaverton-Hillsdale & White Pine Ln,Westbound stop in Beaverton (Stop ID 356),45.486449,-122.767982,2,0,West,Nearside
357,357,SW Beaverton-Hillsdale & 101st,Eastbound stop in Beaverton (Stop ID 357),45.486433,-122.780138,3,0,East,Farside
358,358,SW Beaverton-Hillsdale & 101st,Westbound stop in Beaverton (Stop ID 358),45.486627,-122.780601,3,0,West,Nearside
359,359,SW Beaverton- Hillsdale & 107th,Westbound stop in Beaverton (Stop ID 359),45.486629,-122.786468,3,0,West,Nearside
360,360,SW Beaverton-Hillsdale & 107th,Eastbound stop in Beaverton (Stop ID 360),45.486432,-122.786863,3,0,East,Nearside
361,361,SW Beaverton-Hillsdale & 110th,Westbound stop in Beaverton (Stop ID 361),45.486633,-122.790003,3,0,West,Nearside
362,362,SW Beaverton-Hillsdale & 110th,Eastbound stop in Beaverton (Stop ID 362),45.486413,-122.790333,3,0,East,Opposite
363,363,SW Beaverton-Hillsdale & 18th Dr,Westbound stop in Portland (Stop ID 363),45.478204,-122.697421,2,0,West,Nearside
364,364,SW Beaverton-Hillsdale & 25th,Eastbound stop in Portland (Stop ID 364),45.479870,-122.702192,2,0,East,Farside
365,365,SW Beaverton-Hillsdale & 25th,Westbound stop in Portland (Stop ID 365),45.480084,-122.702266,2,0,West,Nearside
366,366,2600 Block SW Beaverton-Hillsdale,Westbound stop in Portland (Stop ID 366),45.480449,-122.704166,2,0,West,Farside
367,367,SW Beaverton-Hillsdale & 30th,Eastbound stop in Portland (Stop ID 367),45.481497,-122.707944,2,0,East,Nearside
368,368,SW Beaverton-Hillsdale & 33rd,Eastbound stop in Portland (Stop ID 368),45.481759,-122.710514,2,0,East,Nearside
369,369,SW Beaverton-Hillsdale & 35th,Eastbound stop in Portland (Stop ID 369),45.482633,-122.712668,2,0,East,Farside
370,370,SW Beaverton-Hillsdale & 35th,Westbound stop in Portland (Stop ID 370),45.482884,-122.712642,2,0,West,Opposite
371,371,SW Beaverton-Hillsdale & 39th Dr,Eastbound stop in Portland (Stop ID 371),45.484739,-122.717397,2,0,East,Opposite
372,372,SW Beaverton-Hillsdale & 39th Dr,Westbound stop in Portland (Stop ID 372),45.484580,-122.716451,2,0,West,Nearside
373,373,SW Beaverton-Hillsdale & 42nd,Eastbound stop in Portland (Stop ID 373),45.485360,-122.719881,2,0,East,Farside
374,374,SW Beaverton-Hillsdale & 42nd,Westbound stop in Portland (Stop ID 374),45.485596,-122.720100,2,0,West,Nearside
375,375,SW Beaverton-Hillsdale & 45th,Eastbound stop in Portland (Stop ID 375),45.485568,-122.722170,2,0,East,Farside
376,376,SW Beaverton-Hillsdale & 45th,Westbound stop in Portland (Stop ID 376),45.485868,-122.723023,2,0,West,Nearside
377,377,SW Beaverton-Hillsdale & 50th,Eastbound stop in Portland (Stop ID 377),45.486912,-122.728434,2,0,East,Nearside
378,378,SW Beaverton-Hillsdale & 50th,Westbound stop in Portland (Stop ID 378),45.487107,-122.728428,2,0,West,Opposite
379,379,SW Beaverton-Hillsdale & 56th,Eastbound stop in Portland (Stop ID 379),45.486964,-122.734952,2,0,East,Opposite
380,380,SW Beaverton-Hillsdale & 56th,Westbound stop in Portland (Stop ID 380),45.487134,-122.735328,2,0,West,Farside
381,381,SW Beaverton-Hillsdale & 59th,Westbound stop in Portland (Stop ID 381),45.487169,-122.737681,2,0,West,Nearside
382,382,SW Beaverton-Hillsdale & 62nd,Eastbound stop in Portland (Stop ID 382),45.487013,-122.740762,2,0,East,Farside
383,383,6500 Block SW Beaverton-Hillsdale,Eastbound stop in Washington Co. (Stop ID 383),45.486974,-122.744237,2,0,East,At
384,384,SW Beaverton-Hillsdale & 65th,Westbound stop in Portland (Stop ID 384),45.487212,-122.743947,2,0,West,Opposite
385,385,SW Beaverton-Hillsdale & 78th,Westbound stop in Washington Co. (Stop ID 385),45.486256,-122.756777,2,0,West,Nearside
386,386,SW Beaverton-Hillsdale & 78th,Eastbound stop in Washington Co. (Stop ID 386),45.486048,-122.757135,2,0,East,Nearside
387,387,SW Beaverton-Hillsdale & 91st,Westbound stop in Beaverton (Stop ID 387),45.486517,-122.771423,2,0,West,Farside
388,388,SW Beaverton-Hillsdale & 91st,Eastbound stop in Beaverton (Stop ID 388),45.486314,-122.771211,2,0,East,Opposite
389,389,SW Beaverton-Hillsdale & 99th,Westbound stop in Beaverton (Stop ID 389),45.486619,-122.778266,3,0,West,Nearside
390,390,SW Beaverton-Hillsdale & 99th,Eastbound stop in Beaverton (Stop ID 390),45.486426,-122.778535,3,0,East,Opposite
392,392,10000 Block SE Bell,Southbound stop in Clackamas Co. (Stop ID 392),45.450255,-122.592951,3,0,South,At
393,393,SE Bell & Overland,Southbound stop in Clackamas Co. (Stop ID 393),45.454573,-122.592933,3,0,South,Nearside
394,394,SE Bell & Our Ct,Northbound stop in Clackamas Co. (Stop ID 394),45.449766,-122.592738,3,0,North,Nearside
395,395,SE Bell & Johnson Creek,Northbound stop in Clackamas Co. (Stop ID 395),45.455811,-122.592789,2,0,North,Nearside
396,396,SE Bell & Johnson Creek,Southbound stop in Clackamas Co. (Stop ID 396),45.456089,-122.592936,2,0,South,Nearside
397,397,SE Bell & Pierce,Northbound stop in Clackamas Co. (Stop ID 397),45.452450,-122.592774,3,0,North,Nearside
398,398,SE Bell & Jordan,Southbound stop in Clackamas Co. (Stop ID 398),45.452119,-122.592937,3,0,South,Farside
400,400,SE Belmont & 11th,Eastbound stop in Portland (Stop ID 400),45.516434,-122.654433,1,0,East,Farside
402,402,SE Belmont & 14th,Eastbound stop in Portland (Stop ID 402),45.516418,-122.651720,1,0,East,Nearside
404,404,SE Belmont & 17th,Eastbound stop in Portland (Stop ID 404),45.516431,-122.648674,1,0,East,Nearside
406,406,SE Belmont & 20th,Eastbound stop in Portland (Stop ID 406),45.516433,-122.645657,1,0,East,Nearside
408,408,SE Belmont & 23rd,Eastbound stop in Portland (Stop ID 408),45.516433,-122.642599,1,0,East,Nearside
410,410,SE Belmont & 26th,Westbound stop in Portland (Stop ID 410),45.516509,-122.638946,1,0,West,Nearside
413,413,SE Belmont & 28th,Westbound stop in Portland (Stop ID 413),45.516499,-122.637363,1,0,West,Farside
414,414,SE Belmont & 28th,Eastbound stop in Portland (Stop ID 414),45.516386,-122.636740,1,0,East,Farside
417,417,SE Belmont & 30th,Westbound stop in Portland (Stop ID 417),45.516511,-122.635117,1,0,West,Farside
418,418,SE Belmont & 30th,Eastbound stop in Portland (Stop ID 418),45.516386,-122.634456,1,0,East,Farside
420,420,SE Belmont & 32nd,Eastbound stop in Portland (Stop ID 420),45.516407,-122.631937,2,0,East,Farside
421,421,SE Belmont & 32nd,Westbound stop in Portland (Stop ID 421),45.516533,-122.632196,2,0,West,Nearside
422,422,SE Belmont & 34th,Eastbound stop in Portland (Stop ID 422),45.516395,-122.629206,2,0,East,Farside
423,423,SE Belmont & 34th,Westbound stop in Portland (Stop ID 423),45.516507,-122.629400,2,0,West,Nearside
425,425,SE Belmont & 37th,Eastbound stop in Portland (Stop ID 425),45.516401,-122.625495,2,0,East,Farside
426,426,SE Belmont & 38th,Westbound stop in Portland (Stop ID 426),45.516490,-122.624636,2,0,West,Farside
427,427,SE Belmont & Cesar Chavez Blvd,Eastbound stop in Portland (Stop ID 427),45.516504,-122.622218,2,0,East,Farside
428,428,SE Belmont & Cesar Chavez Blvd,Westbound stop in Portland (Stop ID 428),45.516639,-122.622525,2,0,West,Nearside
429,429,SE Belmont & 42nd,Eastbound stop in Portland (Stop ID 429),45.516526,-122.619493,2,0,East,Nearside
430,430,SE Belmont & 42nd,Westbound stop in Portland (Stop ID 430),45.516621,-122.619770,2,0,West,Farside
432,432,SE Belmont & 43rd,Westbound stop in Portland (Stop ID 432),45.516628,-122.618117,2,0,West,Farside
435,435,SE Belmont & 46th,Westbound stop in Portland (Stop ID 435),45.516601,-122.615098,2,0,West,Nearside
436,436,SE Belmont & 46th,Eastbound stop in Portland (Stop ID 436),45.516473,-122.615013,2,0,East,Opposite
439,439,SE Belmont & 49th,Eastbound stop in Portland (Stop ID 439),45.516476,-122.612648,2,0,East,Nearside
440,440,SE Belmont & 49th,Westbound stop in Portland (Stop ID 440),45.516615,-122.612334,2,0,West,Nearside
442,442,SE Belmont & 50th,Eastbound stop in Portland (Stop ID 442),45.516489,-122.610883,2,0,East,Farside
443,443,SE Belmont & 53rd,Eastbound stop in Portland (Stop ID 443),45.516491,-122.608503,2,0,East,Farside
444,444,SE Belmont & 53rd,Westbound stop in Portland (Stop ID 444),45.516606,-122.608556,2,0,West,Nearside
445,445,SE Belmont & 55th,Eastbound stop in Portland (Stop ID 445),45.516481,-122.606931,2,0,East,Nearside
446,446,SE Belmont & 55th,Westbound stop in Portland (Stop ID 446),45.516729,-122.606722,2,0,West,Nearside
448,448,SE Belmont & 58th,Eastbound stop in Portland (Stop ID 448),45.516673,-122.604132,2,0,East,Opposite
449,449,SE Belmont & 58th,Westbound stop in Portland (Stop ID 449),45.516802,-122.604090,2,0,West,Nearside
450,450,SE Belmont & 60th,Eastbound stop in Portland (Stop ID 450),45.516698,-122.601695,2,0,East,Farside
451,451,SE Belmont & 60th,Westbound stop in Portland (Stop ID 451),45.516811,-122.601699,2,0,West,Nearside
453,453,SE Belmont & 62nd,Eastbound stop in Portland (Stop ID 453),45.516713,-122.600326,2,0,East,Opposite
454,454,SE Belmont & 62nd,Westbound stop in Portland (Stop ID 454),45.516827,-122.600537,2,0,West,Farside
456,456,SE Belmont & 65th,Eastbound stop in Portland (Stop ID 456),45.516900,-122.596984,2,0,East,Opposite
457,457,SE Belmont & 65th,Westbound stop in Portland (Stop ID 457),45.516992,-122.596851,2,0,West,Nearside
459,459,SE Belmont & 67th,Eastbound stop in Portland (Stop ID 459),45.516896,-122.594285,2,0,East,Nearside
460,460,SE Belmont & 68th,Westbound stop in Portland (Stop ID 460),45.517015,-122.593115,2,0,West,Nearside
463,463,SE Belmont & 7th,Eastbound stop in Portland (Stop ID 463),45.516425,-122.658919,1,0,East,Nearside
465,465,SE Belmont & 9th,Eastbound stop in Portland (Stop ID 465),45.516428,-122.656805,1,0,East,Nearside
467,467,1400 Block SW Bertha,Eastbound stop in Portland (Stop ID 467),45.470914,-122.693601,2,0,East,At
469,469,SW Binford Lake & Heiney,Westbound stop in Gresham (Stop ID 469),45.481040,-122.452229,3,0,West,Nearside
470,470,SW Binford Lake & Towle,Eastbound stop in Gresham (Stop ID 470),45.480908,-122.448488,3,0,East,Nearside
471,471,SW Binford Lake & Towle,Westbound stop in Gresham (Stop ID 471),45.481033,-122.448781,3,0,West,Farside
481,481,SE Bluff Rd & Hauglum Rd,Southbound stop in Clackamas Co. (Stop ID 481),45.436326,-122.275229,3,0,South,Nearside
485,485,Bluff Rd & SE Kelso Rd,Southbound stop in Sandy (Stop ID 485),45.418460,-122.273090,3,0,South,Nearside
488,488,SE Bluff Rd & Pleasant Home,Eastbound stop in Multnomah Co. (Stop ID 488),45.463920,-122.337073,3,0,East,Nearside
492,492,11200 Block SW Boones Ferry Rd,Northbound stop in Portland (Stop ID 492),45.443659,-122.686605,2,0,North,At
495,495,18200 Block SW Boones Ferry Rd,Southbound stop in Tualatin (Stop ID 495),45.387040,-122.757267,3,0,South,At
496,496,18400 Block SW Boones Ferry Rd,Northbound stop in Durham (Stop ID 496),45.387034,-122.756953,3,0,North,At
500,500,SW Boones Ferry Rd & Alsea,Southbound stop in Tualatin (Stop ID 500),45.365140,-122.773214,3,0,South,Nearside
501,501,SW Boones Ferry Rd & Apache,Southbound stop in Tualatin (Stop ID 501),45.372988,-122.769659,3,0,South,Nearside
502,502,SW Boones Ferry Rd & Apache,Northbound stop in Tualatin (Stop ID 502),45.372759,-122.769708,3,0,North,Opposite
503,503,SW Boones Ferry Rd & Arapaho,Northbound stop in Tualatin (Stop ID 503),45.366675,-122.772978,3,0,North,Nearside
506,506,SW Boones Ferry Rd & Arnold,Southbound stop in Portland (Stop ID 506),45.446484,-122.687186,2,0,South,Farside
507,507,SW Boones Ferry Rd & Arnold,Northbound stop in Portland (Stop ID 507),45.446460,-122.686938,2,0,North,Opposite
510,510,SW Boones Ferry Rd & Blake,Northbound stop in Tualatin (Stop ID 510),45.364842,-122.773004,3,0,North,Nearside
512,512,Boones Ferry Rd & Bryant,Northbound stop in Lake Oswego (Stop ID 512),45.408799,-122.722573,3,0,North,Farside
513,513,SW Lower Boones Ferry & Childs Rd,Eastbound stop in Tualatin (Stop ID 513),45.390038,-122.753063,3,0,East,Farside
514,514,SW Lower Boones Ferry & Childs Rd,Westbound stop in Tualatin (Stop ID 514),45.390074,-122.753345,3,0,West,Opposite
515,515,SW Boones Ferry Rd & Clara Ln,Westbound stop in Portland (Stop ID 515),45.436030,-122.697490,3,0,West,Farside
516,516,SW Boones Ferry Rd & Colony Dr,Southbound stop in Portland (Stop ID 516),45.448911,-122.686277,2,0,South,Opposite
517,517,SW Boones Ferry Rd & Colony Dr,Northbound stop in Portland (Stop ID 517),45.448876,-122.686123,2,0,North,Farside
520,520,SW Boones Ferry Rd & Coronado,Southbound stop in Portland (Stop ID 520),45.442927,-122.686696,2,0,South,Nearside
521,521,SW Boones Ferry Rd & Day,Northbound stop in Wilsonville (Stop ID 521),45.340194,-122.773372,3,0,North,Opposite
522,522,SW Boones Ferry Rd & Day,Southbound stop in Washington Co. (Stop ID 522),45.340144,-122.773705,3,0,South,Farside
529,529,Boones Ferry Rd & Firwood,Southbound stop in Lake Oswego (Stop ID 529),45.408832,-122.723001,3,0,South,Nearside
530,530,SW Boones Ferry Rd & Ibach,Southbound stop in Tualatin (Stop ID 530),45.360896,-122.774561,3,0,South,Farside
531,531,SW Boones Ferry Rd & Ibach,Northbound stop in Tualatin (Stop ID 531),45.360549,-122.774472,3,0,North,Nearside
533,533,SW Boones Ferry Rd & Greenhill Ln,Southbound stop in Washington Co. (Stop ID 533),45.346415,-122.775233,3,0,South,Opposite
534,534,SW Boones Ferry Rd & Greenhill Ln,Northbound stop in Washington Co. (Stop ID 534),45.347064,-122.775113,3,0,North,Farside
535,535,SW Boones Ferry Rd & Killarney,Southbound stop in Tualatin (Stop ID 535),45.367352,-122.773133,3,0,South,Nearside
536,536,Boones Ferry Rd & Kruse Way Pl,Southbound stop in Lake Oswego (Stop ID 536),45.416596,-122.715345,3,0,South,Farside
537,537,18000 Block SW Lower Boones Ferry,Eastbound stop in Tualatin (Stop ID 537),45.391399,-122.751098,3,0,East,At
538,538,Boones Ferry Rd & SW Madrona,Northbound stop in Clackamas Co. (Stop ID 538),45.406781,-122.726135,3,0,North,Opposite
539,539,Boones Ferry Rd & SW Madrona,Southbound stop in Lake Oswego (Stop ID 539),45.407027,-122.726050,3,0,South,Nearside
542,542,SW Boones Ferry Rd & Norwood,Southbound stop in Washington Co. (Stop ID 542),45.353247,-122.774831,3,0,South,Opposite
543,543,SW Boones Ferry Rd & Norwood,Northbound stop in Tualatin (Stop ID 543),45.353505,-122.774641,3,0,North,Nearside
544,544,SW Boones Ferry Rd & Palatine,Southbound stop in Portland (Stop ID 544),45.444481,-122.686562,2,0,South,Farside
545,545,SW Boones Ferry Rd & Palatine,Northbound stop in Portland (Stop ID 545),45.444771,-122.686315,2,0,North,Farside
553,553,Boones Ferry Rd & Rainbow,Southbound stop in Lake Oswego (Stop ID 553),45.421266,-122.710894,3,0,South,Opposite
554,554,Boones Ferry Rd & Rainbow,Northbound stop in Lake Oswego (Stop ID 554),45.421376,-122.710405,3,0,North,Farside
558,558,18000 Block SW Lower Boones Ferry,Westbound stop in Tualatin (Stop ID 558),45.391672,-122.751020,3,0,West,At
562,562,SW Boones Ferry Rd & Siletz,Northbound stop in Tualatin (Stop ID 562),45.369001,-122.772528,3,0,North,Nearside
563,563,SW Boones Ferry Rd & Siletz,Southbound stop in Tualatin (Stop ID 563),45.369520,-122.772632,3,0,South,Nearside
564,564,Boones Ferry Rd & Spring Lane,Northbound stop in Lake Oswego (Stop ID 564),45.416735,-122.714821,3,0,North,Nearside
565,565,SW Boones Ferry Rd & Stephenson,Northbound stop in Portland (Stop ID 565),45.439814,-122.686159,2,0,North,Opposite
566,566,SW Boones Ferry Rd & Stephenson,Westbound stop in Portland (Stop ID 566),45.439790,-122.686515,2,0,West,Farside
568,568,Boones Ferry Rd & Twin Fir,Southbound stop in Lake Oswego (Stop ID 568),45.418319,-122.713614,3,0,South,Opposite
569,569,Boones Ferry Rd & Twin Fir,Northbound stop in Lake Oswego (Stop ID 569),45.418796,-122.712712,3,0,North,Farside
570,570,SW Lower Boones Ferry & Boones Ferry,Eastbound stop in Tualatin (Stop ID 570),45.389237,-122.755057,3,0,East,Farside
571,571,SW Lower Boones Ferry & Boones Ferry,Westbound stop in Durham (Stop ID 571),45.389309,-122.755457,3,0,West,Nearside
576,576,Boones Ferry Rd & West Sunset Dr,Southbound stop in Lake Oswego (Stop ID 576),45.405676,-122.728243,3,0,South,Nearside
577,577,Boones Ferry Rd & West Sunset Dr,Northbound stop in Lake Oswego (Stop ID 577),45.405259,-122.728463,3,0,North,Opposite
580,580,SW Boones Ferry Rd & 19th,Eastbound stop in Portland (Stop ID 580),45.436013,-122.697270,3,0,East,Farside
581,581,SW Boones Ferry Rd & 22nd,Southbound stop in Portland (Stop ID 581),45.434296,-122.700109,3,0,South,Opposite
582,582,SW Boones Ferry Rd & 22nd,Northbound stop in Portland (Stop ID 582),45.434297,-122.699928,3,0,North,Farside
583,583,SW Boones Ferry Rd & 4th,Westbound stop in Portland (Stop ID 583),45.451845,-122.683271,2,0,West,Opposite
584,584,SW Boones Ferry Rd & 4th,Eastbound stop in Portland (Stop ID 584),45.451775,-122.683195,2,0,East,Farside
593,593,SW Laurelwood & Brentwood,Northbound stop in Beaverton (Stop ID 593),45.490967,-122.760742,2,0,North,Nearside
595,595,SW Brentwood & 78th,Eastbound stop in Washington Co. (Stop ID 595),45.490977,-122.757731,2,0,East,Nearside
596,596,NW Bridge Ave & St Helens,Northbound stop in Portland (Stop ID 596),45.587365,-122.773682,2,0,North,Nearside
597,597,NW Bridge Ave & Germantown,Northbound stop in Portland (Stop ID 597),45.586346,-122.772452,2,0,North,Opposite
598,598,NW Bridge Ave & Germantown,Southbound stop in Portland (Stop ID 598),45.586455,-122.772802,2,0,South,Nearside
599,599,NW Bridge Ave & Springville,Northbound stop in Portland (Stop ID 599),45.585252,-122.771428,2,0,North,Opposite
600,600,NW Bridge Ave & Springville,Southbound stop in Portland (Stop ID 600),45.585252,-122.771583,2,0,South,Nearside
605,605,NE Broadway & Grand,Westbound stop in Portland (Stop ID 605),45.535142,-122.660461,1,0,West,Nearside
607,607,SW Broadway & Hall,Southbound stop in Portland (Stop ID 607),45.510406,-122.684560,1,0,South,Farside
611,611,N Broadway & Benton,Eastbound stop in Portland (Stop ID 611),45.534032,-122.669905,1,0,East,Farside
614,614,SW Broadway & Lincoln,Southbound stop in Portland (Stop ID 614),45.508238,-122.685535,1,0,South,Nearside
616,616,SW Broadway & Market,Southbound stop in Portland (Stop ID 616),45.513002,-122.683175,1,0,South,Farside
622,622,NE Broadway & M L King,Westbound stop in Portland (Stop ID 622),45.535161,-122.661985,1,0,West,Farside
625,625,NW Broadway & Irving,Northbound stop in Portland (Stop ID 625),45.527832,-122.677483,0,0,North,Nearside
627,627,N Broadway & Vancouver,Westbound stop in Portland (Stop ID 627),45.535188,-122.667515,1,0,West,Nearside
629,629,NE Broadway & 12th,Westbound stop in Portland (Stop ID 629),45.535103,-122.653405,1,0,West,Nearside
631,631,NE Broadway & 16th,Westbound stop in Portland (Stop ID 631),45.535116,-122.649857,1,0,West,Farside
632,632,NE Broadway & 17th,Westbound stop in Portland (Stop ID 632),45.535104,-122.648332,1,0,West,Nearside
633,633,NE Broadway & 2nd,Westbound stop in Portland (Stop ID 633),45.535165,-122.663511,1,0,West,Nearside
634,634,NE Broadway & 21st,Westbound stop in Portland (Stop ID 634),45.535099,-122.645338,1,0,West,Farside
635,635,NE Broadway & 24th,Westbound stop in Portland (Stop ID 635),45.535122,-122.641606,1,0,West,Farside
636,636,NE Broadway & 26th,Eastbound stop in Portland (Stop ID 636),45.535068,-122.638671,1,0,East,Farside
637,637,NE Broadway & 26th,Westbound stop in Portland (Stop ID 637),45.535238,-122.639566,1,0,West,Farside
638,638,NE Broadway & 28th,Eastbound stop in Portland (Stop ID 638),45.535069,-122.636380,1,0,East,Farside
639,639,NE Broadway & 28th,Westbound stop in Portland (Stop ID 639),45.535239,-122.636589,1,0,West,Nearside
641,641,NE Broadway & 30th,Westbound stop in Portland (Stop ID 641),45.535252,-122.634861,1,0,West,Nearside
642,642,NE Broadway & 32nd,Eastbound stop in Portland (Stop ID 642),45.535105,-122.633509,1,0,East,Nearside
643,643,NE Broadway & 32nd,Westbound stop in Portland (Stop ID 643),45.535247,-122.633017,1,0,West,Nearside
644,644,NE Broadway & 33rd,Westbound stop in Portland (Stop ID 644),45.535239,-122.631150,2,0,West,Farside
645,645,NE Broadway & 33rd,Eastbound stop in Portland (Stop ID 645),45.535056,-122.630863,2,0,East,Nearside
646,646,NE Broadway & 35th,Eastbound stop in Portland (Stop ID 646),45.535066,-122.627798,2,0,East,Farside
647,647,NE Broadway & 35th,Westbound stop in Portland (Stop ID 647),45.535239,-122.628275,2,0,West,Nearside
648,648,NE Broadway & 37th,Eastbound stop in Portland (Stop ID 648),45.535058,-122.625522,2,0,East,Nearside
649,649,NE Broadway & 37th,Westbound stop in Portland (Stop ID 649),45.535232,-122.624789,2,0,West,Nearside
650,650,NE Broadway & 44th,Westbound stop in Portland (Stop ID 650),45.535188,-122.617752,2,0,West,Nearside
651,651,NE Broadway & 44th,Eastbound stop in Portland (Stop ID 651),45.535058,-122.617544,2,0,East,Farside
653,653,NE Broadway & 47th,Eastbound stop in Portland (Stop ID 653),45.535070,-122.615114,2,0,East,Nearside
654,654,SW Broadway & 5th,Westbound stop in Portland (Stop ID 654),45.506729,-122.683468,1,0,West,Nearside
655,655,NE Broadway & 7th,Westbound stop in Portland (Stop ID 655),45.535148,-122.658468,1,0,West,Nearside
656,656,NE Broadway & 9th,Westbound stop in Portland (Stop ID 656),45.535135,-122.656399,1,0,West,Nearside
659,659,16200 Block NW Bronson (Park & Ride),Eastbound stop in Beaverton (Stop ID 659),45.534583,-122.844095,3,0,East,At
660,660,16200 Block NW Bronson (Park & Ride),Westbound stop in Beaverton (Stop ID 660),45.534728,-122.844201,3,0,West,Opposite
663,663,Bryant & Black Forest Ct,Northbound stop in Lake Oswego (Stop ID 663),45.399461,-122.723026,3,0,North,Opposite
664,664,Bryant & Chapman,Northbound stop in Lake Oswego (Stop ID 664),45.401603,-122.723042,3,0,North,Farside
665,665,Bryant & Lakeview,Northbound stop in Lake Oswego (Stop ID 665),45.403939,-122.723055,3,0,North,Nearside
667,667,17500 Block Bryant,Southbound stop in Lake Oswego (Stop ID 667),45.398824,-122.723159,3,0,South,At
668,668,Bryant & Lords Ln,Northbound stop in Lake Oswego (Stop ID 668),45.398275,-122.723025,3,0,North,Nearside
669,669,Bryant & Wildwood,Southbound stop in Lake Oswego (Stop ID 669),45.399986,-122.723187,3,0,South,Farside
672,672,Kerr & Jefferson Pkwy,Southbound stop in Lake Oswego (Stop ID 672),45.431094,-122.718476,3,0,South,Nearside
682,682,4600 Block W Burnside,Westbound stop in Portland (Stop ID 682),45.519400,-122.725046,2,0,West,At
685,685,W Burnside & SW Fischer Ln,Eastbound stop in Portland (Stop ID 685),45.519156,-122.722144,2,0,East,Nearside
686,686,W Burnside & NW Barnes,Northbound stop in Portland (Stop ID 686),45.520503,-122.720686,1,0,North,Opposite
687,687,W Burnside & NW Barnes,Westbound stop in Portland (Stop ID 687),45.520238,-122.721263,1,0,West,Farside
689,689,W Burnside & Burnside Bridge,Westbound stop in Portland (Stop ID 689),45.523249,-122.671269,1,0,West,At
690,690,W Burnside & Mt. Calvary Cemetery,Eastbound stop in Portland (Stop ID 690),45.519332,-122.735182,2,0,East,At
691,691,W Burnside & Mt. Calvary Cemetery,Westbound stop in Portland (Stop ID 691),45.519450,-122.735171,2,0,West,At
696,696,9100 Block E Burnside,Eastbound stop in Portland (Stop ID 696),45.522660,-122.570564,2,0,East,Opposite
697,697,9100 Block E Burnside,Westbound stop in Portland (Stop ID 697),45.522833,-122.570642,2,0,West,At
701,701,E Burnside & SE Floral,Eastbound stop in Portland (Stop ID 701),45.522781,-122.628980,2,0,East,Nearside
702,702,E Burnside & NE Floral,Westbound stop in Portland (Stop ID 702),45.522931,-122.628576,2,0,West,Nearside
704,704,E Burnside & NE Grand,Eastbound stop in Portland (Stop ID 704),45.522863,-122.660874,1,0,East,Nearside
706,706,W Burnside & NW Hermosa,Eastbound stop in Portland (Stop ID 706),45.522508,-122.714966,1,0,East,Opposite
707,707,W Burnside & NW Hermosa,Westbound stop in Portland (Stop ID 707),45.522658,-122.715010,1,0,West,Farside
710,710,E Burnside & SE Laurelhurst,Eastbound stop in Portland (Stop ID 710),45.523111,-122.625480,2,0,East,Nearside
711,711,E Burnside & NE Laurelhurst,Westbound stop in Portland (Stop ID 711),45.523335,-122.625194,2,0,West,Nearside
712,712,W Burnside & SW Tichner,Eastbound stop in Portland (Stop ID 712),45.523015,-122.710722,1,0,East,Farside
713,713,W Burnside & NW Macleay,Westbound stop in Portland (Stop ID 713),45.523388,-122.710124,1,0,West,Farside
715,715,W Burnside & SW 8th,Eastbound stop in Portland (Stop ID 715),45.522977,-122.678526,1,0,East,Nearside
716,716,W Burnside & NW Park,Westbound stop in Portland (Stop ID 716),45.523115,-122.678939,1,0,West,Nearside
718,718,W Burnside & SW St Clair,Eastbound stop in Portland (Stop ID 718),45.523287,-122.696995,1,0,East,Nearside
723,723,W Burnside & SW 13th,Eastbound stop in Portland (Stop ID 723),45.522829,-122.684390,1,0,East,Nearside
725,725,W Burnside & SW 15th,Eastbound stop in Portland (Stop ID 725),45.522786,-122.686682,1,0,East,Nearside
726,726,E Burnside & SE 16th,Eastbound stop in Portland (Stop ID 726),45.522815,-122.649706,1,0,East,Nearside
730,730,E Burnside & NE 18th,Westbound stop in Portland (Stop ID 730),45.522967,-122.647366,1,0,West,Nearside
735,735,W Burnside & NW 19th,Westbound stop in Portland (Stop ID 735),45.523097,-122.690083,1,0,West,Nearside
740,740,E Burnside & SE 20th,Eastbound stop in Portland (Stop ID 740),45.522781,-122.645660,1,0,East,Nearside
741,741,W Burnside & NW 20th,Westbound stop in Portland (Stop ID 741),45.523176,-122.692139,1,0,West,Nearside
742,742,W Burnside & NW 20th Pl,Westbound stop in Portland (Stop ID 742),45.523220,-122.693130,1,0,West,Nearside
747,747,W Burnside & NW King,Westbound stop in Portland (Stop ID 747),45.523312,-122.694901,1,0,West,Nearside
749,749,W Burnside & SW 21st ,Eastbound stop in Portland (Stop ID 749),45.523106,-122.694450,1,0,East,Nearside
755,755,W Burnside & NW 23rd,Westbound stop in Portland (Stop ID 755),45.523512,-122.698081,1,0,West,Nearside
759,759,E Burnside & SE 24th,Eastbound stop in Portland (Stop ID 759),45.522800,-122.641110,1,0,East,Farside
760,760,E Burnside & NE 24th,Westbound stop in Portland (Stop ID 760),45.522941,-122.641234,1,0,West,Nearside
763,763,E Burnside & SE 28th,Eastbound stop in Portland (Stop ID 763),45.522784,-122.637436,1,0,East,Nearside
764,764,E Burnside & NE 28th,Westbound stop in Portland (Stop ID 764),45.522954,-122.638026,1,0,West,Farside
766,766,E Burnside & NE 30th,Westbound stop in Portland (Stop ID 766),45.522953,-122.634368,1,0,West,Nearside
767,767,E Burnside & SE 30th Pl,Eastbound stop in Portland (Stop ID 767),45.522781,-122.634109,1,0,East,Nearside
768,768,E Burnside & NE 32nd,Westbound stop in Portland (Stop ID 768),45.522949,-122.631984,2,0,West,Farside
769,769,E Burnside & SE 32nd,Eastbound stop in Portland (Stop ID 769),45.522775,-122.631813,2,0,East,Nearside
770,770,E Burnside & SE Cesar Chavez Blvd,Eastbound stop in Portland (Stop ID 770),45.523442,-122.623210,2,0,East,Nearside
771,771,E Burnside & NE Cesar Chavez Blvd,Westbound stop in Portland (Stop ID 771),45.523597,-122.622862,2,0,West,Nearside
772,772,W Burnside & SW 4th,Eastbound stop in Portland (Stop ID 772),45.522974,-122.674799,1,0,East,Nearside
774,774,E Burnside & SE 41st,Eastbound stop in Portland (Stop ID 774),45.522994,-122.620138,2,0,East,Nearside
775,775,E Burnside & NE 41st,Westbound stop in Portland (Stop ID 775),45.523071,-122.619832,2,0,West,Nearside
776,776,E Burnside & SE 44th,Eastbound stop in Portland (Stop ID 776),45.522967,-122.617467,2,0,East,Nearside
777,777,E Burnside & NE 44th,Westbound stop in Portland (Stop ID 777),45.523146,-122.617170,2,0,West,Nearside
778,778,E Burnside & NE 47th,Westbound stop in Portland (Stop ID 778),45.523029,-122.614800,2,0,West,Nearside
779,779,E Burnside & SE 47th,Eastbound stop in Portland (Stop ID 779),45.522825,-122.614334,2,0,East,Farside
780,780,W Burnside & NW 48th Ave,Westbound stop in Portland (Stop ID 780),45.519865,-122.727261,2,0,West,Nearside
781,781,W Burnside & SW 48th Dr,Eastbound stop in Portland (Stop ID 781),45.519703,-122.726997,2,0,East,Farside
782,782,W Burnside & NW 5th,Westbound stop in Portland (Stop ID 782),45.523169,-122.675893,1,0,West,Farside
785,785,E Burnside & NE 52nd,Westbound stop in Portland (Stop ID 785),45.522958,-122.610057,2,0,West,Nearside
786,786,E Burnside & SE 52nd,Eastbound stop in Portland (Stop ID 786),45.522824,-122.609980,2,0,East,Farside
787,787,E Burnside & SE 55th,Eastbound stop in Portland (Stop ID 787),45.522811,-122.607143,2,0,East,Farside
788,788,E Burnside & NE 55th,Westbound stop in Portland (Stop ID 788),45.522949,-122.607370,2,0,West,Nearside
791,791,E Burnside & NE 58th,Westbound stop in Portland (Stop ID 791),45.522942,-122.604216,2,0,West,Nearside
792,792,W Burnside & SW 6th,Eastbound stop in Portland (Stop ID 792),45.522961,-122.676924,1,0,East,Nearside
793,793,E Burnside & SE 60th,Eastbound stop in Portland (Stop ID 793),45.522783,-122.602492,2,0,East,Nearside
794,794,E Burnside & NE 60th,Westbound stop in Portland (Stop ID 794),45.522946,-122.602155,2,0,West,Nearside
796,796,E Burnside & NE 62nd,Westbound stop in Portland (Stop ID 796),45.522933,-122.599477,2,0,West,Nearside
799,799,E Burnside & SE 67th,Eastbound stop in Portland (Stop ID 799),45.523045,-122.595376,2,0,East,Opposite
800,800,E Burnside & NE 67th,Westbound stop in Portland (Stop ID 800),45.523182,-122.594959,2,0,West,Nearside
801,801,E Burnside & NE 69th,Westbound stop in Portland (Stop ID 801),45.523166,-122.591848,2,0,West,Nearside
806,806,E Burnside & SE 72nd,Eastbound stop in Portland (Stop ID 806),45.523035,-122.589044,2,0,East,Nearside
807,807,E Burnside & NE 72nd,Westbound stop in Portland (Stop ID 807),45.523161,-122.588844,2,0,West,Nearside
808,808,E Burnside & SE 74th,Eastbound stop in Portland (Stop ID 808),45.522796,-122.586915,2,0,East,Nearside
809,809,E Burnside & NE 74th,Westbound stop in Portland (Stop ID 809),45.522884,-122.586722,2,0,West,Nearside
811,811,E Burnside & NE 79th,Westbound stop in Portland (Stop ID 811),45.522859,-122.582310,2,0,West,Nearside
812,812,E Burnside & SE 79th,Eastbound stop in Portland (Stop ID 812),45.522748,-122.582532,2,0,East,Nearside
813,813,E Burnside & SE 82nd,Eastbound stop in Portland (Stop ID 813),45.522726,-122.579491,2,0,East,Nearside
814,814,E Burnside & NE 82nd,Westbound stop in Portland (Stop ID 814),45.522856,-122.578872,2,0,West,Nearside
817,817,E Burnside & SE 87th,Eastbound stop in Portland (Stop ID 817),45.522685,-122.574027,2,0,East,Nearside
818,818,E Burnside & NE 87th,Westbound stop in Portland (Stop ID 818),45.522820,-122.573772,2,0,West,Nearside
820,820,E Burnside & SE 8th,Eastbound stop in Portland (Stop ID 820),45.522847,-122.657843,1,0,East,Nearside
822,822,E Burnside & SE 94th,Eastbound stop in Portland (Stop ID 822),45.522618,-122.566533,3,0,East,Farside
823,823,E Burnside & NE 94th,Westbound stop in Portland (Stop ID 823),45.522760,-122.566710,3,0,West,Nearside
830,830,S Buxton & SW Cherry Park,Northbound stop in Troutdale (Stop ID 830),45.534422,-122.388306,3,0,North,Farside
831,831,S Buxton & SW Cherry Park,Southbound stop in Troutdale (Stop ID 831),45.533760,-122.388442,3,0,South,Nearside
832,832,Buxton & E Columbia River Hwy,Northbound stop in Troutdale (Stop ID 832),45.540555,-122.388240,3,0,North,Nearside
833,833,S Buxton & SW Martine,Southbound stop in Troutdale (Stop ID 833),45.535840,-122.388483,3,0,South,Nearside
836,836,S Buxton & SE 6th,Northbound stop in Troutdale (Stop ID 836),45.537024,-122.388282,3,0,North,Nearside
837,837,S Buxton & SE 8th,Northbound stop in Troutdale (Stop ID 837),45.535649,-122.388291,3,0,North,Nearside
838,838,SE Bybee & Milwaukie,Westbound stop in Portland (Stop ID 838),45.473792,-122.648391,2,0,West,Nearside
839,839,SE Bybee & Milwaukie,Eastbound stop in Portland (Stop ID 839),45.473650,-122.648916,2,0,East,Nearside
843,843,SE Bybee & 14th,Westbound stop in Portland (Stop ID 843),45.473737,-122.651634,2,0,West,Nearside
844,844,SE Bybee & 14th,Eastbound stop in Portland (Stop ID 844),45.473627,-122.651422,2,0,East,Farside
845,845,SE Bybee & 17th,Eastbound stop in Portland (Stop ID 845),45.473707,-122.647859,2,0,East,Nearside
846,846,SE Bybee & 18th,Westbound stop in Portland (Stop ID 846),45.473893,-122.646644,2,0,West,Nearside
847,847,SE Bybee & 19th,Eastbound stop in Portland (Stop ID 847),45.473827,-122.645883,2,0,East,Nearside
848,848,SE Bybee & 20th,Westbound stop in Portland (Stop ID 848),45.474019,-122.644661,2,0,West,Nearside
852,852,SE Bybee & 22nd,Eastbound stop in Portland (Stop ID 852),45.474022,-122.642372,2,0,East,Farside
853,853,SE Bybee & 22nd,Westbound stop in Portland (Stop ID 853),45.474141,-122.642694,2,0,West,Nearside
855,855,SE Bybee & 23rd,Westbound stop in Portland (Stop ID 855),45.474231,-122.641275,2,0,West,Nearside
858,858,SE Bybee & 27th,Eastbound stop in Portland (Stop ID 858),45.474302,-122.635970,2,0,East,Farside
859,859,2400 Block SE Bybee,Westbound stop in Portland (Stop ID 859),45.474429,-122.637518,2,0,West,At
860,860,SE Bybee & 28th,Southbound stop in Portland (Stop ID 860),45.473488,-122.634763,2,0,South,Nearside
861,861,4600 Block SW Cameron,Eastbound stop in Portland (Stop ID 861),45.483441,-122.724795,2,0,East,At
862,862,SW Cameron & Fairvale Ct,Eastbound stop in Portland (Stop ID 862),45.483464,-122.727360,2,0,East,Nearside
863,863,SW Cameron & Shattuck,Eastbound stop in Portland (Stop ID 863),45.483508,-122.734806,2,0,East,Farside
865,865,SW Cameron & 53rd,Eastbound stop in Portland (Stop ID 865),45.483484,-122.731620,2,0,East,Nearside
868,868,SW Campus Dr & Main Dental School,Eastbound stop in Portland (Stop ID 868),45.498187,-122.684303,1,0,East,Opposite
870,870,SW Campus Dr & Terwilliger,Eastbound stop in Portland (Stop ID 870),45.499105,-122.682572,1,0,East,Nearside
871,871,SW Campus Dr & Loading Dock 5,Westbound stop in Portland (Stop ID 871),45.498877,-122.685141,1,0,West,At
882,882,7500 Block SW Canyon,Westbound stop in Beaverton (Stop ID 882),45.498895,-122.754627,2,0,West,At
883,883,SW Canyon & Canyon Dr,Westbound stop in Beaverton (Stop ID 883),45.498446,-122.764453,2,0,West,Opposite
885,885,SW Canyon & Benz Park (2nd),Westbound stop in Beaverton (Stop ID 885),45.501681,-122.752358,2,0,West,Nearside
890,890,SW Canyon & Copel,Westbound stop in Beaverton (Stop ID 890),45.500674,-122.753440,2,0,West,Nearside
892,892,SW Canyon & Jade,Northbound stop in Beaverton (Stop ID 892),45.500321,-122.753355,2,0,North,Farside
893,893,SW Canyon & Linden,Eastbound stop in Beaverton (Stop ID 893),45.497832,-122.755668,2,0,East,Opposite
894,894,Hwy 26 On Ramp & SW Skyline,Eastbound stop in Portland (Stop ID 894),45.508228,-122.735473,2,0,East,Farside
895,895,Hwy 26/Canyon Rd Ramp & SW Skyline,Westbound stop in Portland (Stop ID 895),45.509128,-122.736456,2,0,West,Farside
898,898,SW Canyon & Walker,Westbound stop in Beaverton (Stop ID 898),45.493448,-122.779968,3,0,West,Farside
899,899,SW Canyon & Walker,Eastbound stop in Beaverton (Stop ID 899),45.493334,-122.779414,3,0,East,Opposite
904,904,SW Canyon & 104th,Westbound stop in Beaverton (Stop ID 904),45.492740,-122.783561,3,0,West,Nearside
906,906,SW Canyon & 107th,Eastbound stop in Beaverton (Stop ID 906),45.491842,-122.786981,3,0,East,Nearside
907,907,SW Canyon & 107th,Westbound stop in Washington Co. (Stop ID 907),45.492101,-122.786756,3,0,West,Nearside
908,908,SW Canyon & 110th,Eastbound stop in Beaverton (Stop ID 908),45.491165,-122.789930,3,0,East,Nearside
909,909,SW Canyon & 110th,Westbound stop in Beaverton (Stop ID 909),45.491419,-122.789888,3,0,West,Farside
910,910,SW Canyon & 115th,Westbound stop in Beaverton (Stop ID 910),45.490041,-122.795325,3,0,West,Nearside
912,912,SW Canyon & 73rd,Eastbound stop in Beaverton (Stop ID 912),45.501477,-122.752277,2,0,East,Nearside
913,913,SW Canyon & 87th,Eastbound stop in Beaverton (Stop ID 913),45.498108,-122.766215,2,0,East,Farside
914,914,SW Canyon & 87th,Westbound stop in Beaverton (Stop ID 914),45.498042,-122.767203,2,0,West,Farside
915,915,SW Canyon & 91st,Eastbound stop in Beaverton (Stop ID 915),45.496029,-122.770705,2,0,East,Nearside
917,917,SW Canyon & 93rd,Westbound stop in Beaverton (Stop ID 917),45.495257,-122.772614,3,0,West,Opposite
918,918,SW Canyon & 93rd,Eastbound stop in Beaverton (Stop ID 918),45.495114,-122.772523,3,0,East,Nearside
919,919,SW Canyon & 96th,Westbound stop in Beaverton (Stop ID 919),45.494130,-122.775502,3,0,West,Opposite
920,920,SW Canyon & 96th,Eastbound stop in Beaverton (Stop ID 920),45.494031,-122.775426,3,0,East,Nearside
921,921,SW Capitol & Alice,Southbound stop in Portland (Stop ID 921),45.458354,-122.719090,2,0,South,Nearside
922,922,SW Capitol & Alice,Northbound stop in Portland (Stop ID 922),45.458242,-122.718921,2,0,North,Nearside
923,923,SW Capitol & Barbur,Northbound stop in Portland (Stop ID 923),45.452927,-122.721441,2,0,North,Nearside
925,925,SW Capitol & Bertha Ct,Eastbound stop in Portland (Stop ID 925),45.478076,-122.696368,2,0,East,Farside
926,926,9500 Block SW Capitol,Southbound stop in Portland (Stop ID 926),45.456577,-122.719075,2,0,South,Opposite
927,927,SW Capitol & Carson,Southbound stop in Portland (Stop ID 927),45.464226,-122.718071,2,0,South,Nearside
929,929,SW Capitol & Sunset,Eastbound stop in Portland (Stop ID 929),45.478788,-122.692856,2,0,East,Opposite
930,930,SW Capitol & Taylors Ferry,Southbound stop in Portland (Stop ID 930),45.454758,-122.720456,2,0,South,Nearside
931,931,SW Capitol & Dickinson,Southbound stop in Portland (Stop ID 931),45.447259,-122.725555,2,0,South,Farside
932,932,SW Capitol & Dickinson,Northbound stop in Portland (Stop ID 932),45.447351,-122.725180,2,0,North,Nearside
933,933,SW Capitol & Dolph,Southbound stop in Portland (Stop ID 933),45.461858,-122.719187,2,0,South,Opposite
934,934,SW Capitol & Dolph,Northbound stop in Portland (Stop ID 934),45.462050,-122.718868,2,0,North,Farside
935,935,SW Capitol & Florida,Southbound stop in Portland (Stop ID 935),45.474695,-122.707788,2,0,South,Farside
936,936,SW Capitol & Galeburn,Southbound stop in Portland (Stop ID 936),45.449468,-122.724241,2,0,South,Opposite
937,937,SW Capitol & Galeburn,Northbound stop in Portland (Stop ID 937),45.449205,-122.724093,2,0,North,Nearside
938,938,SW Troy & 40th,Westbound stop in Portland (Stop ID 938),45.468319,-122.717872,2,0,West,Nearside
939,939,SW Capitol & Garden Home,Northbound stop in Portland (Stop ID 939),45.466705,-122.716356,2,0,North,Opposite
942,942,SW Capitol & Idaho,Northbound stop in Portland (Stop ID 942),45.476681,-122.701600,2,0,North,Nearside
943,943,SW Capitol & Idaho,Westbound stop in Portland (Stop ID 943),45.476746,-122.701726,2,0,West,Farside
946,946,SW Capitol & Marigold,Northbound stop in Portland (Stop ID 946),45.460354,-122.719043,2,0,North,Farside
947,947,SW Capitol & Marigold,Southbound stop in Portland (Stop ID 947),45.460388,-122.719242,2,0,South,Farside
948,948,SW Capitol & Miles,Northbound stop in Portland (Stop ID 948),45.470569,-122.707624,2,0,North,Nearside
949,949,SW Capitol & Miles,Southbound stop in Portland (Stop ID 949),45.470960,-122.707754,2,0,South,Farside
951,951,SW Capitol & Pomona,Southbound stop in Portland (Stop ID 951),45.445156,-122.726945,2,0,South,Farside
952,952,SW Capitol & Pomona,Northbound stop in Portland (Stop ID 952),45.445264,-122.726560,2,0,North,Nearside
955,955,SW Capitol & Sunset,Westbound stop in Portland (Stop ID 955),45.478868,-122.693304,2,0,West,Nearside
956,956,SW Capitol & Terwilliger,Eastbound stop in Portland (Stop ID 956),45.480037,-122.687281,2,0,East,Nearside
957,957,SW Capitol & Terwilliger,Westbound stop in Portland (Stop ID 957),45.480272,-122.687337,2,0,West,Farside
958,958,SW Capitol & Texas,Southbound stop in Portland (Stop ID 958),45.473592,-122.707792,2,0,South,Farside
959,959,SW Capitol & California,Northbound stop in Portland (Stop ID 959),45.474393,-122.707573,2,0,North,Nearside
963,963,SW Capitol & Nebraska,Eastbound stop in Portland (Stop ID 963),45.477647,-122.699252,2,0,East,Farside
964,964,SW Capitol & Nebraska,Westbound stop in Portland (Stop ID 964),45.477723,-122.699617,2,0,West,Opposite
965,965,SW Capitol & 26th,Eastbound stop in Portland (Stop ID 965),45.475996,-122.703481,2,0,East,Farside
966,966,SW Capitol & 26th,Westbound stop in Portland (Stop ID 966),45.476125,-122.704203,2,0,West,Farside
970,970,SW Capitol & 33rd,Westbound stop in Portland (Stop ID 970),45.468604,-122.710530,2,0,West,Farside
971,971,SW Capitol & 33rd,Eastbound stop in Portland (Stop ID 971),45.468534,-122.710177,2,0,East,Opposite
972,972,SW Capitol & 35th,Eastbound stop in Portland (Stop ID 972),45.467989,-122.712973,2,0,East,Nearside
975,975,SW Capitol & Brugger,Eastbound stop in Portland (Stop ID 975),45.455886,-122.719216,2,0,East,Nearside
976,976,SW Capitol & 49th,Southbound stop in Portland (Stop ID 976),45.444274,-122.727175,2,0,South,Nearside
984,984,8600 Block SE Causey,Westbound stop in Clackamas Co. (Stop ID 984),45.441306,-122.573491,3,0,West,At
986,986,SE Causey & Ross Center,Westbound stop in Clackamas Co. (Stop ID 986),45.441310,-122.580375,3,0,West,At
987,987,8800 Block SE Causey,Eastbound stop in Clackamas Co. (Stop ID 987),45.441179,-122.572992,3,0,East,Opposite
988,988,SE Causey & 82nd,Eastbound stop in Clackamas Co. (Stop ID 988),45.441197,-122.579248,3,0,East,Nearside
989,989,SE Causey & 82nd,Westbound stop in Clackamas Co. (Stop ID 989),45.441362,-122.578600,3,0,West,Nearside
993,993,SW Cedar Hills & Butner,Southbound stop in Beaverton (Stop ID 993),45.512676,-122.795074,3,0,South,Farside
995,995,3300 Block SW Cedar Hills,Northbound stop in Beaverton (Stop ID 995),45.495467,-122.809248,3,0,North,At
996,996,SW Cedar Hills & Butner,Northbound stop in Beaverton (Stop ID 996),45.512728,-122.794687,3,0,North,Nearside
1002,1002,SW Cedar Hills & Fairfield,Northbound stop in Beaverton (Stop ID 1002),45.497029,-122.808344,3,0,North,Nearside
1003,1003,SW Cedar Hills & Fairfield,Southbound stop in Beaverton (Stop ID 1003),45.497021,-122.808619,3,0,South,Opposite
1010,1010,SW Cedar Hills & Huntington,Eastbound stop in Beaverton (Stop ID 1010),45.502816,-122.803236,3,0,East,Opposite
1011,1011,SW Cedar Hills & Huntington,Westbound stop in Beaverton (Stop ID 1011),45.502998,-122.803399,3,0,West,Nearside
1013,1013,SW Cedar Hills & Jenkins,Northbound stop in Beaverton (Stop ID 1013),45.498757,-122.807304,3,0,North,Nearside
1014,1014,SW Cedar Hills & Jenkins,Southbound stop in Beaverton (Stop ID 1014),45.498589,-122.807695,3,0,South,Farside
1017,1017,SW Cedar Hills & Lynnridge,Eastbound stop in Beaverton (Stop ID 1017),45.504973,-122.798091,3,0,East,Farside
1018,1018,SW Cedar Hills & Lynnridge,Westbound stop in Beaverton (Stop ID 1018),45.504838,-122.798821,3,0,West,Farside
1019,1019,SW Cedar Hills & Park Way,Northbound stop in Beaverton (Stop ID 1019),45.507522,-122.796007,3,0,North,Nearside
1020,1020,SW Cedar Hills & Park Way,Southbound stop in Beaverton (Stop ID 1020),45.507376,-122.796382,3,0,South,Farside
1021,1021,SW Cedar Hills & Walker,Northbound stop in Beaverton (Stop ID 1021),45.501109,-122.805842,3,0,North,Nearside
1022,1022,SW Cedar Hills & Walker,Southbound stop in Beaverton (Stop ID 1022),45.501005,-122.806299,3,0,South,Farside
1034,1034,SW Center & 125th,Eastbound stop in Beaverton (Stop ID 1034),45.493617,-122.805359,3,0,East,Opposite
1035,1035,SW Center & 125th,Westbound stop in Beaverton (Stop ID 1035),45.493732,-122.806116,3,0,West,Farside
1041,1041,N Channel Ave & Anchor,Eastbound stop in Portland (Stop ID 1041),45.556629,-122.703903,2,0,East,Farside
1042,1042,N Channel Ave & Ballast,Eastbound stop in Portland (Stop ID 1042),45.558013,-122.707640,2,0,East,Opposite
1043,1043,N Channel Ave & Commerce,Southbound stop in Portland (Stop ID 1043),45.560372,-122.712028,2,0,South,Opposite
1044,1044,N Channel Ave & Dolphin,Southbound stop in Portland (Stop ID 1044),45.562331,-122.715712,2,0,South,Opposite
1045,1045,N Chautauqua & Washburne,Northbound stop in Portland (Stop ID 1045),45.585832,-122.706922,2,0,North,Nearside
1046,1046,N Chautauqua & Washburne,Southbound stop in Portland (Stop ID 1046),45.586094,-122.706755,2,0,South,Opposite
1047,1047,N Chautauqua & Alaska,Northbound stop in Portland (Stop ID 1047),45.587739,-122.705271,2,0,North,Nearside
1050,1050,N Chautauqua & Willis,Southbound stop in Portland (Stop ID 1050),45.584540,-122.708050,2,0,South,Nearside
1051,1051,SW Chestnut & Bertha,Westbound stop in Portland (Stop ID 1051),45.472652,-122.694517,2,0,West,Nearside
1053,1053,SW Chestnut & 12th,Southbound stop in Portland (Stop ID 1053),45.474488,-122.691562,2,0,South,Nearside
1056,1056,SW Chestnut & 14th,Northbound stop in Portland (Stop ID 1056),45.473194,-122.693437,2,0,North,Nearside
1059,1059,N Syracuse & Baltimore,Southbound stop in Portland (Stop ID 1059),45.590521,-122.757780,2,0,South,Nearside
1062,1062,SW Childs & Benfield,Eastbound stop in Rivergrove (Stop ID 1062),45.386151,-122.736443,3,0,East,Opposite
1063,1063,SW Childs & Benfield,Westbound stop in Rivergrove (Stop ID 1063),45.386247,-122.736500,3,0,West,Nearside
1065,1065,SW Childs & Marlin,Eastbound stop in Rivergrove (Stop ID 1065),45.386133,-122.733930,3,0,East,Farside
1066,1066,SW Childs & Terry,Westbound stop in Rivergrove (Stop ID 1066),45.386284,-122.739483,3,0,West,Farside
1067,1067,SW Childs & Terry,Eastbound stop in Rivergrove (Stop ID 1067),45.386183,-122.739441,3,0,East,Opposite
1068,1068,Clackamas Community College,Southbound stop in Oregon City (Stop ID 1068),45.322754,-122.575286,3,0,South,At
1092,1092,SE Clinton & 21st,Westbound stop in Portland (Stop ID 1092),45.503444,-122.644417,1,0,West,Nearside
1093,1093,SE Clinton & 23rd,Eastbound stop in Portland (Stop ID 1093),45.503331,-122.642711,1,0,East,Nearside
1094,1094,SE Clinton & 23rd,Westbound stop in Portland (Stop ID 1094),45.503449,-122.642652,1,0,West,Farside
1095,1095,SE Clinton & 26th,Eastbound stop in Portland (Stop ID 1095),45.503310,-122.639899,1,0,East,Nearside
1097,1097,Rose Quarter Transit Center,Northbound stop in Portland (Stop ID 1097),45.530690,-122.665648,1,0,North,At
1098,1098,Rose Quarter Transit Center,Southbound stop in Portland (Stop ID 1098),45.530315,-122.666005,1,0,South,At
1099,1099,3500 Block NE Columbia Blvd,Westbound stop in Portland (Stop ID 1099),45.573056,-122.626893,2,0,West,At
1100,1100,3500 Block NE Columbia Blvd,Eastbound stop in Portland (Stop ID 1100),45.573103,-122.628285,2,0,East,Opposite
1101,1101,3800 Block NE Columbia Blvd,Westbound stop in Portland (Stop ID 1101),45.572518,-122.623890,2,0,West,At
1102,1102,3800 Block NE Columbia Blvd,Eastbound stop in Portland (Stop ID 1102),45.572226,-122.623260,2,0,East,At
1104,1104,E Columbia River Hwy & SE Dora,Eastbound stop in Troutdale (Stop ID 1104),45.540672,-122.386996,3,0,East,Farside
1108,1108,SW Columbia & SW Park Ave,Eastbound stop in Portland (Stop ID 1108),45.514931,-122.683288,1,0,East,Nearside
1111,1111,SW Columbia & 12th,Eastbound stop in Portland (Stop ID 1111),45.515892,-122.686837,1,0,East,Nearside
1114,1114,SW 18th & Columbia,Eastbound stop in Portland (Stop ID 1114),45.517577,-122.693099,1,0,East,Nearside
1115,1115,NE Columbia Blvd & 27th,Westbound stop in Portland (Stop ID 1115),45.575371,-122.638302,2,0,West,Opposite
1116,1116,NE Columbia Blvd & 42nd,Westbound stop in Portland (Stop ID 1116),45.571909,-122.620817,2,0,West,Farside
1117,1117,NE Columbia Blvd & 42nd,Eastbound stop in Portland (Stop ID 1117),45.571424,-122.619380,2,0,East,Farside
1118,1118,NE Columbia Blvd & 47th,Eastbound stop in Portland (Stop ID 1118),45.570688,-122.615008,2,0,East,Nearside
1122,1122,SW Commercial & Hall,Northbound stop in Tigard (Stop ID 1122),45.428655,-122.766448,3,0,North,Farside
1123,1123,SW Commercial & Hall,Southbound stop in Tigard (Stop ID 1123),45.428566,-122.766605,3,0,South,Nearside
1125,1125,SW Corbett & Abernethy,Southbound stop in Portland (Stop ID 1125),45.495168,-122.676093,1,0,South,Nearside
1126,1126,SW Corbett & Abernethy,Northbound stop in Portland (Stop ID 1126),45.494999,-122.675871,1,0,North,Nearside
1127,1127,SW Corbett & Bancroft,Southbound stop in Portland (Stop ID 1127),45.492463,-122.676280,2,0,South,Nearside
1128,1128,SW Corbett & Bancroft,Northbound stop in Portland (Stop ID 1128),45.492246,-122.676135,2,0,North,Nearside
1129,1129,SW Corbett & Boundary St,Northbound stop in Portland (Stop ID 1129),45.484962,-122.676719,2,0,North,Nearside
1130,1130,SW Corbett & Carolina,Northbound stop in Portland (Stop ID 1130),45.478616,-122.676822,2,0,North,Nearside
1131,1131,SW Corbett & Carolina,Southbound stop in Portland (Stop ID 1131),45.478790,-122.676958,2,0,South,Nearside
1132,1132,SW Corbett & Curry,Southbound stop in Portland (Stop ID 1132),45.498011,-122.675950,1,0,South,Nearside
1133,1133,SW Corbett & Curry,Northbound stop in Portland (Stop ID 1133),45.497861,-122.675799,1,0,North,Nearside
1134,1134,SW Corbett & Flower,Southbound stop in Portland (Stop ID 1134),45.482589,-122.676890,2,0,South,Nearside
1135,1135,SW Corbett & Flower,Northbound stop in Portland (Stop ID 1135),45.482415,-122.676754,2,0,North,Nearside
1136,1136,SW Corbett & Gaines,Northbound stop in Portland (Stop ID 1136),45.496458,-122.675884,1,0,North,Nearside
1137,1137,SW Corbett & Gaines,Southbound stop in Portland (Stop ID 1137),45.496573,-122.676009,1,0,South,Nearside
1138,1138,SW Corbett & Gibbs,Southbound stop in Portland (Stop ID 1138),45.499444,-122.675939,1,0,South,Nearside
1139,1139,SW Corbett & Gibbs,Northbound stop in Portland (Stop ID 1139),45.499293,-122.675769,1,0,North,Nearside
1140,1140,SW Corbett & Hamilton,Southbound stop in Portland (Stop ID 1140),45.490985,-122.676319,2,0,South,Nearside
1141,1141,SW Corbett & Hamilton,Northbound stop in Portland (Stop ID 1141),45.490760,-122.676151,2,0,North,Nearside
1146,1146,SW Corbett & Mitchell,Northbound stop in Portland (Stop ID 1146),45.486016,-122.676683,2,0,North,Farside
1147,1147,SW Corbett & Mitchell,Southbound stop in Portland (Stop ID 1147),45.485847,-122.676849,2,0,South,Nearside
1148,1148,SW Corbett & Nebraska,Southbound stop in Portland (Stop ID 1148),45.477399,-122.677015,2,0,South,Opposite
1149,1149,SW Corbett & Pendleton,Northbound stop in Portland (Stop ID 1149),45.481090,-122.676776,2,0,North,Nearside
1150,1150,SW Corbett & Pendleton,Southbound stop in Portland (Stop ID 1150),45.481255,-122.676922,2,0,South,Nearside
1151,1151,SW Corbett & Richardson,Southbound stop in Portland (Stop ID 1151),45.487150,-122.676830,2,0,South,Farside
1152,1152,SW Corbett & Richardson,Northbound stop in Portland (Stop ID 1152),45.487104,-122.676677,2,0,North,Nearside
1153,1153,SW Corbett & Seymour,Southbound stop in Portland (Stop ID 1153),45.489659,-122.676338,2,0,South,Nearside
1154,1154,SW Corbett & Seymour,Northbound stop in Portland (Stop ID 1154),45.489505,-122.676152,2,0,North,Opposite
1155,1155,SW Corbett & Sweeney,Southbound stop in Portland (Stop ID 1155),45.483704,-122.676878,2,0,South,Opposite
1158,1158,NW Evergreen Pkwy & Cornelius Pass Rd,Westbound stop in Hillsboro (Stop ID 1158),45.546509,-122.901132,3,0,West,Farside
1159,1159,NW Evergreen Pkwy & 188th,Westbound stop in Hillsboro (Stop ID 1159),45.538283,-122.869908,3,0,West,Nearside
1160,1160,12200 Block NW Cornell,Eastbound stop in Washington Co. (Stop ID 1160),45.526431,-122.802223,3,0,East,At
1161,1161,12200 Block NW Cornell,Westbound stop in Washington Co. (Stop ID 1161),45.526562,-122.802578,3,0,West,Opposite
1162,1162,12900 Block NW Cornell,Westbound stop in Washington Co. (Stop ID 1162),45.525018,-122.810207,3,0,West,At
1163,1163,NW Cornell & Dale,Eastbound stop in Washington Co. (Stop ID 1163),45.525675,-122.812785,3,0,East,Nearside
1165,1165,13900 Block NW Cornell,Westbound stop in Washington Co. (Stop ID 1165),45.529474,-122.820185,3,0,West,At
1166,1166,14100 Block NW Cornell ,Eastbound stop in Beaverton (Stop ID 1166),45.530311,-122.823048,3,0,East,Opposite
1167,1167,14100 Block NW Cornell,Westbound stop in Beaverton (Stop ID 1167),45.530563,-122.823054,3,0,West,At
1171,1171,NW Cornell & Barnes,Eastbound stop in Washington Co. (Stop ID 1171),45.524857,-122.808571,3,0,East,Nearside
1172,1172,NW Cornell & Dale,Westbound stop in Washington Co. (Stop ID 1172),45.525514,-122.812086,3,0,West,Nearside
1174,1174,NW Cornell & Murray,Westbound stop in Beaverton (Stop ID 1174),45.527016,-122.814997,3,0,West,Farside
1182,1182,NW Cornell & Saltzman,Westbound stop in Washington Co. (Stop ID 1182),45.525368,-122.807184,3,0,West,Farside
1183,1183,NW Cornell & Saltzman,Eastbound stop in Washington Co. (Stop ID 1183),45.525196,-122.806811,3,0,East,Nearside
1184,1184,NW Cornell & Science Park Dr,Westbound stop in Washington Co. (Stop ID 1184),45.530815,-122.825610,3,0,West,Opposite
1186,1186,13800 Block NW Cornell (Sunset HS),Eastbound stop in Beaverton (Stop ID 1186),45.529252,-122.820308,3,0,East,At
1187,1187,NW Cornell & Trail,Westbound stop in Beaverton (Stop ID 1187),45.528605,-122.818293,3,0,West,Farside
1188,1188,NW Cornell & Trail,Eastbound stop in Beaverton (Stop ID 1188),45.528138,-122.817704,3,0,East,Opposite
1189,1189,14600 Block NW Cornell,Eastbound stop in Washington Co. (Stop ID 1189),45.531499,-122.828952,3,0,East,At
1190,1190,NW Cornell & Cornell Woods,Westbound stop in Washington Co. (Stop ID 1190),45.531795,-122.829352,3,0,West,Opposite
1194,1194,NW Cornell & 110th,Eastbound stop in Washington Co. (Stop ID 1194),45.526162,-122.790087,3,0,East,Farside
1195,1195,NW Cornell & 110th,Westbound stop in Washington Co. (Stop ID 1195),45.526205,-122.789613,3,0,West,Nearside
1196,1196,NW Cornell & Cedar Hills Blvd,Eastbound stop in Beaverton (Stop ID 1196),45.526346,-122.793466,3,0,East,Nearside
1199,1199,NW Cornell & 113th,Westbound stop in Beaverton (Stop ID 1199),45.526595,-122.793498,3,0,West,Farside
1200,1200,NW Cornell & 119th,Eastbound stop in Washington Co. (Stop ID 1200),45.526919,-122.799915,3,0,East,Opposite
1201,1201,NW Cornell & 119th,Westbound stop in Beaverton (Stop ID 1201),45.527057,-122.799525,3,0,West,Nearside
1203,1203,NW Cornell & 123rd,Westbound stop in Washington Co. (Stop ID 1203),45.525967,-122.804555,3,0,West,Farside
1204,1204,NW Cornell & 143rd,Eastbound stop in Washington Co. (Stop ID 1204),45.530504,-122.824649,3,0,East,Opposite
1205,1205,NW Cornell & 153rd,Eastbound stop in Washington Co. (Stop ID 1205),45.531702,-122.834064,3,0,East,Farside
1207,1207,4100 Block SW Council Crest,Eastbound stop in Portland (Stop ID 1207),45.493276,-122.700076,1,0,East,At
1208,1208,SW Council Crest & Beaverton,Westbound stop in Portland (Stop ID 1208),45.496970,-122.703761,1,0,West,Nearside
1211,1211,SW Council Crest & Chehalem,Northbound stop in Portland (Stop ID 1211),45.496324,-122.702014,1,0,North,Farside
1212,1212,SW Council Crest & Chehalem,Eastbound stop in Portland (Stop ID 1212),45.496662,-122.703405,1,0,East,Nearside
1213,1213,SW Council Crest & Chehalem,Westbound stop in Portland (Stop ID 1213),45.496773,-122.703335,1,0,West,Opposite
1214,1214,SW Council Crest & Chehalem #2,Southbound stop in Portland (Stop ID 1214),45.496128,-122.701979,1,0,South,Nearside
1215,1215,SW Council Crest & Greenway,Eastbound stop in Portland (Stop ID 1215),45.497518,-122.705087,1,0,East,Farside
1217,1217,SW Council Crest & Tualatin,Southbound stop in Portland (Stop ID 1217),45.494626,-122.702332,1,0,South,Opposite
1218,1218,SW Council Crest & Tualatin,Westbound stop in Portland (Stop ID 1218),45.493398,-122.700529,1,0,West,Nearside
1219,1219,700 Block Country Club,Westbound stop in Lake Oswego (Stop ID 1219),45.423077,-122.683216,3,0,West,At
1220,1220,Country Club & Boones Ferry Rd,Westbound stop in Lake Oswego (Stop ID 1220),45.424526,-122.707607,3,0,West,Nearside
1221,1221,Country Club & Iron Mtn,Westbound stop in Lake Oswego (Stop ID 1221),45.423077,-122.679181,3,0,West,Farside
1222,1222,Country Club & Iron Mtn,Eastbound stop in Lake Oswego (Stop ID 1222),45.422846,-122.679115,3,0,East,Nearside
1223,1223,Country Club & Knaus Rd,Westbound stop in Lake Oswego (Stop ID 1223),45.423181,-122.688846,3,0,West,Nearside
1224,1224,Country Club & Knaus Rd,Eastbound stop in Lake Oswego (Stop ID 1224),45.422962,-122.689284,3,0,East,Opposite
1225,1225,2500 Block Country Club,Eastbound stop in Lake Oswego (Stop ID 1225),45.424538,-122.701279,3,0,East,At
1226,1226,Country Club & Hazel Road,Westbound stop in Lake Oswego (Stop ID 1226),45.425159,-122.702545,3,0,West,Farside
1227,1227,Country Club & Redwood,Westbound stop in Lake Oswego (Stop ID 1227),45.423198,-122.692891,3,0,West,Nearside
1228,1228,Country Club & Bridge,Eastbound stop in Lake Oswego (Stop ID 1228),45.422983,-122.693141,3,0,East,Nearside
1229,1229,Country Club & Sundeleaf,Westbound stop in Lake Oswego (Stop ID 1229),45.425235,-122.704815,3,0,West,Opposite
1230,1230,Country Club & Sundeleaf,Eastbound stop in Lake Oswego (Stop ID 1230),45.424909,-122.705201,3,0,East,Nearside
1231,1231,Country Club & Uplands,Westbound stop in Lake Oswego (Stop ID 1231),45.423292,-122.695308,3,0,West,Opposite
1232,1232,Country Club & Uplands,Eastbound stop in Lake Oswego (Stop ID 1232),45.423161,-122.695790,3,0,East,Nearside
1233,1233,Country Club & Wembley Park,Westbound stop in Lake Oswego (Stop ID 1233),45.423845,-122.697652,3,0,West,Opposite
1234,1234,Country Club & Wembley Park,Eastbound stop in Lake Oswego (Stop ID 1234),45.423776,-122.698261,3,0,East,Nearside
1239,1239,NE Cully & Shaver,Southbound stop in Portland (Stop ID 1239),45.551716,-122.604174,2,0,South,Farside
1240,1240,NE Cully & Prescott,Northbound stop in Portland (Stop ID 1240),45.555346,-122.600803,2,0,North,Nearside
1241,1241,NE Cully & Prescott,Southbound stop in Portland (Stop ID 1241),45.554849,-122.601532,2,0,South,Farside
1243,1243,Cully & Killingsworth,Northbound stop in Portland (Stop ID 1243),45.563024,-122.593784,2,0,North,Farside
1244,1244,NE Cully & Mason,Northbound stop in Portland (Stop ID 1244),45.552412,-122.603277,2,0,North,Nearside
1245,1245,NE Cully & Mason,Southbound stop in Portland (Stop ID 1245),45.552652,-122.603392,2,0,South,Nearside
1252,1252,SE Currin & Hwy 211-224,Southbound stop in Estacada (Stop ID 1252),45.285227,-122.333010,3,0,South,Nearside
1254,1254,SW Custer & 13th,Westbound stop in Portland (Stop ID 1254),45.469761,-122.691522,2,0,West,Nearside
1255,1255,E Dartmouth & Cornell,Eastbound stop in Gladstone (Stop ID 1255),45.382287,-122.588168,3,0,East,Nearside
1256,1256,E Dartmouth & Cornell,Westbound stop in Gladstone (Stop ID 1256),45.382533,-122.587971,3,0,West,Nearside
1257,1257,E Dartmouth & Harvard,Eastbound stop in Gladstone (Stop ID 1257),45.381227,-122.591352,3,0,East,Nearside
1258,1258,E Dartmouth & Harvard,Westbound stop in Gladstone (Stop ID 1258),45.381470,-122.591201,3,0,West,Nearside
1259,1259,E Dartmouth & Portland Ave,Westbound stop in Gladstone (Stop ID 1259),45.380385,-122.594494,3,0,West,Nearside
1264,1264,NE Dekum & Dean,Eastbound stop in Portland (Stop ID 1264),45.571703,-122.652717,2,0,East,Nearside
1265,1265,NE Dekum & Durham,Eastbound stop in Portland (Stop ID 1265),45.571715,-122.656249,2,0,East,Farside
1267,1267,NE Dekum & Durham,Westbound stop in Portland (Stop ID 1267),45.571820,-122.655849,2,0,West,Nearside
1271,1271,NE Dekum & Saratoga,Westbound stop in Portland (Stop ID 1271),45.571925,-122.641202,2,0,West,Nearside
1273,1273,NE Dekum & M L King,Westbound stop in Portland (Stop ID 1273),45.571878,-122.660841,2,0,West,Nearside
1275,1275,NE Dekum & Claremont,Westbound stop in Portland (Stop ID 1275),45.571813,-122.652687,2,0,West,Farside
1277,1277,NE Dekum & 15th,Westbound stop in Portland (Stop ID 1277),45.571917,-122.649925,2,0,West,Nearside
1278,1278,NE Dekum & 15th,Eastbound stop in Portland (Stop ID 1278),45.571827,-122.650177,2,0,East,Nearside
1280,1280,NE Dekum & 18th,Westbound stop in Portland (Stop ID 1280),45.571923,-122.647124,2,0,West,Farside
1281,1281,NE Dekum & 18th,Eastbound stop in Portland (Stop ID 1281),45.571812,-122.646776,2,0,East,Nearside
1282,1282,NE Dekum & 22nd,Westbound stop in Portland (Stop ID 1282),45.571932,-122.643364,2,0,West,Nearside
1283,1283,NE Dekum & 22nd,Eastbound stop in Portland (Stop ID 1283),45.571800,-122.643225,2,0,East,Farside
1284,1284,NE Dekum & 24th,Eastbound stop in Portland (Stop ID 1284),45.571813,-122.641456,2,0,East,Nearside
1285,1285,NE Dekum & 27th,Westbound stop in Portland (Stop ID 1285),45.571936,-122.638000,2,0,West,Nearside
1286,1286,NE Dekum & 27th,Eastbound stop in Portland (Stop ID 1286),45.571808,-122.638720,2,0,East,Nearside
1287,1287,NE Dekum & 29th,Westbound stop in Portland (Stop ID 1287),45.571940,-122.635853,2,0,West,Nearside
1288,1288,NE Dekum & 29th,Eastbound stop in Portland (Stop ID 1288),45.571827,-122.635712,2,0,East,Farside
1289,1289,NE Dekum & 32nd Pl,Westbound stop in Portland (Stop ID 1289),45.571943,-122.631590,2,0,West,Opposite
1290,1290,NE Dekum & 33rd,Eastbound stop in Portland (Stop ID 1290),45.571821,-122.630888,2,0,East,Nearside
1292,1292,NE Dekum & 6th,Westbound stop in Portland (Stop ID 1292),45.571865,-122.659189,2,0,West,Nearside
1293,1293,NE Dekum & 6th,Eastbound stop in Portland (Stop ID 1293),45.571719,-122.659459,2,0,East,Nearside
1295,1295,9000 Block N Denver,Northbound stop in Portland (Stop ID 1295),45.587891,-122.686803,2,0,North,At
1296,1296,N Denver & Kilpatrick,Northbound stop in Portland (Stop ID 1296),45.582290,-122.686800,2,0,North,Nearside
1297,1297,N Denver & Kilpatrick,Southbound stop in Portland (Stop ID 1297),45.582493,-122.686978,2,0,South,Nearside
1298,1298,9000 Block N Denver,Southbound stop in Portland (Stop ID 1298),45.587777,-122.686989,2,0,South,At
1299,1299,N Denver & Russet,Southbound stop in Portland (Stop ID 1299),45.578118,-122.687013,2,0,South,Opposite
1300,1300,N Denver & Terry,Northbound stop in Portland (Stop ID 1300),45.579435,-122.686764,2,0,North,Nearside
1301,1301,N Denver & Terry,Southbound stop in Portland (Stop ID 1301),45.579613,-122.687013,2,0,South,Nearside
1303,1303,N Denver & Watts,Northbound stop in Portland (Stop ID 1303),45.581203,-122.686784,2,0,North,Farside
1304,1304,N Denver & Watts,Southbound stop in Portland (Stop ID 1304),45.581120,-122.687010,2,0,South,Nearside
1308,1308,12700 Block SE Division,Eastbound stop in Portland (Stop ID 1308),45.503962,-122.532200,3,0,East,At
1309,1309,13100 Block SE Division,Westbound stop in Portland (Stop ID 1309),45.504150,-122.527628,3,0,West,At
1310,1310,16900 Block SE Division,Westbound stop in Portland (Stop ID 1310),45.504674,-122.488955,3,0,West,At
1312,1312,3100 Block SE Division,Eastbound stop in Gresham (Stop ID 1312),45.504384,-122.464747,3,0,East,At
1313,1313,SE Division & 68th,Westbound stop in Portland (Stop ID 1313),45.505426,-122.593971,2,0,West,Farside
1314,1314,7300 Block SE Division,Eastbound stop in Portland (Stop ID 1314),45.505317,-122.587479,2,0,East,At
1315,1315,NW Division & Civic Dr,Eastbound stop in Gresham (Stop ID 1315),45.504381,-122.440684,3,0,East,Farside
1316,1316,NW Division & Civic Dr,Westbound stop in Gresham (Stop ID 1316),45.504604,-122.441787,3,0,West,Farside
1317,1317,NE Division & Hogan Pl,Westbound stop in Gresham (Stop ID 1317),45.504922,-122.415141,3,0,West,Farside
1318,1318,NW Division & Battaglia,Westbound stop in Gresham (Stop ID 1318),45.504550,-122.457435,3,0,West,Opposite
1320,1320,NE Division & Palmblad Dr,Eastbound stop in Gresham (Stop ID 1320),45.504692,-122.402862,3,0,East,Farside
1321,1321,NW Division & Birdsdale,Eastbound stop in Gresham (Stop ID 1321),45.504361,-122.455210,3,0,East,Nearside
1323,1323,Division & Buchanan,Eastbound stop in Oregon City (Stop ID 1323),45.351660,-122.594261,3,0,East,Opposite
1324,1324,NE Division & Burnside,Eastbound stop in Gresham (Stop ID 1324),45.504690,-122.416616,3,0,East,Farside
1325,1325,NE Division & Burnside,Westbound stop in Gresham (Stop ID 1325),45.504883,-122.418373,3,0,West,Farside
1326,1326,19200 Block SE Division,Westbound stop in Gresham (Stop ID 1326),45.504581,-122.465297,3,0,West,At
1327,1327,NE Division & Cleveland,Westbound stop in Gresham (Stop ID 1327),45.504960,-122.421645,3,0,West,Farside
1328,1328,NE Division & Cleveland,Eastbound stop in Gresham (Stop ID 1328),45.504711,-122.421276,3,0,East,Nearside
1331,1331,NW Division & Eastman Parkway,Eastbound stop in Gresham (Stop ID 1331),45.504367,-122.436442,3,0,East,Nearside
1332,1332,NW Division & Eastman Parkway,Westbound stop in Gresham (Stop ID 1332),45.504573,-122.435257,3,0,West,Nearside
1334,1334,NW Division & Eastwood,Westbound stop in Gresham (Stop ID 1334),45.504578,-122.462212,3,0,West,Nearside
1335,1335,NE Division & Fleming,Eastbound stop in Gresham (Stop ID 1335),45.504711,-122.408417,3,0,East,Nearside
1336,1336,NE Division & Fleming,Westbound stop in Gresham (Stop ID 1336),45.504928,-122.408299,3,0,West,Opposite
1338,1338,NE Division & Francis,Westbound stop in Gresham (Stop ID 1338),45.504935,-122.411145,3,0,West,Opposite
1339,1339,NE Division & Hogan,Eastbound stop in Gresham (Stop ID 1339),45.504721,-122.413480,3,0,East,Farside
1340,1340,NE Division & Kelly,Westbound stop in Gresham (Stop ID 1340),45.505011,-122.425790,3,0,West,Nearside
1341,1341,SE Division & Ladd,Westbound stop in Portland (Stop ID 1341),45.504875,-122.645757,1,0,West,Farside
1342,1342,NW Division & Miller,Westbound stop in Gresham (Stop ID 1342),45.504555,-122.432620,3,0,West,Farside
1343,1343,Division & Morton,Northbound stop in Oregon City (Stop ID 1343),45.352719,-122.588305,3,0,North,Nearside
1344,1344,NW Division & Norman,Eastbound stop in Gresham (Stop ID 1344),45.504378,-122.438360,3,0,East,Nearside
1346,1346,NW Division & Riverview,Eastbound stop in Gresham (Stop ID 1346),45.504376,-122.452159,3,0,East,Nearside
1347,1347,NW Division & Riverview,Westbound stop in Gresham (Stop ID 1347),45.504544,-122.452663,3,0,West,Farside
1348,1348,NE Division & Main,Eastbound stop in Gresham (Stop ID 1348),45.504430,-122.430227,3,0,East,Farside
1349,1349,SE Division & 142nd,Eastbound stop in Portland (Stop ID 1349),45.504006,-122.517190,3,0,East,Opposite
1350,1350,SE Division & 165th,Westbound stop in Portland (Stop ID 1350),45.504680,-122.492904,3,0,West,Opposite
1351,1351,Division & Selma,Eastbound stop in Oregon City (Stop ID 1351),45.351590,-122.591213,3,0,East,Nearside
1354,1354,NW Division & Victoria,Eastbound stop in Gresham (Stop ID 1354),45.504380,-122.433546,3,0,East,Farside
1355,1355,NE Division & Village Squire Ct,Eastbound stop in Gresham (Stop ID 1355),45.504695,-122.404648,3,0,East,Opposite
1356,1356,NE Division & Village Squire Ct,Westbound stop in Gresham (Stop ID 1356),45.504918,-122.404251,3,0,West,Nearside
1357,1357,NW Division & Wallula,Eastbound stop in Gresham (Stop ID 1357),45.504412,-122.444472,3,0,East,Farside
1358,1358,NW Division & Wallula,Westbound stop in Gresham (Stop ID 1358),45.504625,-122.445410,3,0,West,Farside
1359,1359,SE Division & 101st,Eastbound stop in Portland (Stop ID 1359),45.504219,-122.559672,3,0,East,Nearside
1360,1360,SE Division & 101st,Westbound stop in Portland (Stop ID 1360),45.504405,-122.559469,3,0,West,Nearside
1361,1361,SE Division & 103rd,Eastbound stop in Portland (Stop ID 1361),45.504184,-122.557689,3,0,East,Nearside
1362,1362,SE Division & 104th Dr,Westbound stop in Portland (Stop ID 1362),45.504377,-122.556113,3,0,West,Nearside
1363,1363,SE Division & 105th,Eastbound stop in Portland (Stop ID 1363),45.504146,-122.554941,3,0,East,Farside
1364,1364,SE Division & 106th,Westbound stop in Portland (Stop ID 1364),45.504344,-122.553692,3,0,West,Nearside
1365,1365,SE Division & 109th,Eastbound stop in Portland (Stop ID 1365),45.504097,-122.551495,3,0,East,Nearside
1367,1367,SE Division & 110th,Westbound stop in Portland (Stop ID 1367),45.504302,-122.550496,3,0,West,Farside
1368,1368,SE Division & 112th,Eastbound stop in Portland (Stop ID 1368),45.504103,-122.547052,3,0,East,Farside
1369,1369,SE Division & 112th,Westbound stop in Portland (Stop ID 1369),45.504303,-122.547784,3,0,West,Nearside
1370,1370,SE Division & 116th,Eastbound stop in Portland (Stop ID 1370),45.504068,-122.543857,3,0,East,Opposite
1371,1371,SE Division & 115th,Westbound stop in Portland (Stop ID 1371),45.504284,-122.545047,3,0,West,Farside
1373,1373,SE Division & 119th,Eastbound stop in Portland (Stop ID 1373),45.504023,-122.540473,3,0,East,Farside
1374,1374,SE Division & 119th,Westbound stop in Portland (Stop ID 1374),45.504228,-122.540771,3,0,West,Opposite
1375,1375,SE Division & 12th,Eastbound stop in Portland (Stop ID 1375),45.504791,-122.653840,1,0,East,Nearside
1376,1376,SE Division & 12th,Westbound stop in Portland (Stop ID 1376),45.504909,-122.654195,1,0,West,Farside
1377,1377,Division & 12th,Southbound stop in Oregon City (Stop ID 1377),45.352979,-122.588518,3,0,South,Nearside
1379,1379,SE Division & 122nd,Eastbound stop in Portland (Stop ID 1379),45.503986,-122.537168,3,0,East,Farside
1381,1381,SE Division & 122nd,Westbound stop in Portland (Stop ID 1381),45.504216,-122.538380,3,0,West,Farside
1382,1382,SE Division & 124th,Westbound stop in Portland (Stop ID 1382),45.504184,-122.535477,3,0,West,Nearside
1383,1383,SE Division & 125th,Eastbound stop in Portland (Stop ID 1383),45.503984,-122.534848,3,0,East,Nearside
1385,1385,Division & 13th,Northbound stop in Oregon City (Stop ID 1385),45.354517,-122.588305,3,0,North,Opposite
1386,1386,SE Division & 130th,Eastbound stop in Portland (Stop ID 1386),45.503960,-122.530112,3,0,East,Nearside
1387,1387,SE Division & 130th,Westbound stop in Portland (Stop ID 1387),45.504183,-122.530625,3,0,West,Farside
1388,1388,SE Division & 131st,Eastbound stop in Portland (Stop ID 1388),45.503924,-122.527853,3,0,East,Farside
1389,1389,SE Division & 136th,Eastbound stop in Portland (Stop ID 1389),45.503958,-122.523162,3,0,East,Farside
1390,1390,SE Division & 135th,Westbound stop in Portland (Stop ID 1390),45.504172,-122.524563,3,0,West,Nearside
1391,1391,SE Division & 138th,Eastbound stop in Portland (Stop ID 1391),45.503983,-122.521476,3,0,East,Nearside
1392,1392,SE Division & 139th,Westbound stop in Portland (Stop ID 1392),45.504185,-122.521399,3,0,West,Farside
1393,1393,Division & 13th,Southbound stop in Oregon City (Stop ID 1393),45.354656,-122.588496,3,0,South,Nearside
1396,1396,SE Division & 142nd,Westbound stop in Portland (Stop ID 1396),45.504224,-122.516735,3,0,West,Nearside
1398,1398,SE Division & 145th,Eastbound stop in Portland (Stop ID 1398),45.504051,-122.513235,3,0,East,Farside
1399,1399,SE Division & 145th,Westbound stop in Portland (Stop ID 1399),45.504286,-122.513747,3,0,West,Nearside
1400,1400,SE Division & 148th,Eastbound stop in Portland (Stop ID 1400),45.504099,-122.509746,3,0,East,Farside
1403,1403,Division & 15th,Southbound stop in Oregon City (Stop ID 1403),45.356863,-122.588437,3,0,South,Nearside
1404,1404,Division & 15th,Northbound stop in Oregon City (Stop ID 1404),45.356193,-122.588276,3,0,North,Nearside
1405,1405,SE Division & 151st,Eastbound stop in Portland (Stop ID 1405),45.504168,-122.507030,3,0,East,Farside
1407,1407,SE Division & 152nd,Westbound stop in Portland (Stop ID 1407),45.504384,-122.506916,3,0,West,Nearside
1408,1408,SE Division & 156th,Westbound stop in Portland (Stop ID 1408),45.504516,-122.502447,3,0,West,Nearside
